{
  "version": "1.0.0",
  "lastUpdate": "2026-02-03",
  "region": "JA",
  "summits": [
    {
      "ref": "JA/AC-001",
      "name": "Chausuyama",
      "nameEn": "Chausuyama",
      "lat": 35.2276,
      "lon": 137.6555,
      "altitude": 1415,
      "points": 8,
      "activations": 53,
      "bonus": 3
    },
    {
      "ref": "JA/AC-002",
      "name": "Tengudana",
      "nameEn": "Tengudana",
      "lat": 35.1902,
      "lon": 137.5808,
      "altitude": 1240,
      "points": 8,
      "activations": 48,
      "bonus": 3
    },
    {
      "ref": "JA/AC-003",
      "name": "Takanosuyama",
      "nameEn": "Takanosuyama",
      "lat": 35.1526,
      "lon": 137.495,
      "altitude": 1152,
      "points": 8,
      "activations": 30,
      "bonus": 3
    },
    {
      "ref": "JA/AC-004",
      "name": "JA/AC-004",
      "nameEn": "JA/AC-004",
      "lat": 35.1361,
      "lon": 137.4436,
      "altitude": 1130,
      "points": 8,
      "activations": 44,
      "bonus": 3
    },
    {
      "ref": "JA/AC-005",
      "name": "JA/AC-005",
      "nameEn": "JA/AC-005",
      "lat": 35.1531,
      "lon": 137.76691,
      "altitude": 1109,
      "points": 8,
      "activations": 16,
      "bonus": 3
    },
    {
      "ref": "JA/AC-006",
      "name": "Myoujinyama",
      "nameEn": "Myoujinyama",
      "lat": 35.0497,
      "lon": 137.6626,
      "altitude": 1016,
      "points": 6,
      "activations": 7,
      "bonus": 0
    },
    {
      "ref": "JA/AC-007",
      "name": "Oosuzuyama",
      "nameEn": "Oosuzuyama",
      "lat": 35.1052,
      "lon": 137.60629,
      "altitude": 1012,
      "points": 6,
      "activations": 11,
      "bonus": 0
    },
    {
      "ref": "JA/AC-008",
      "name": "Koiwadake",
      "nameEn": "Koiwadake",
      "lat": 35.1235,
      "lon": 137.7372,
      "altitude": 985,
      "points": 6,
      "activations": 6,
      "bonus": 0
    },
    {
      "ref": "JA/AC-009",
      "name": "Shiratoriyama",
      "nameEn": "Shiratoriyama",
      "lat": 35.1602,
      "lon": 137.6514,
      "altitude": 968,
      "points": 6,
      "activations": 13,
      "bonus": 0
    },
    {
      "ref": "JA/AC-010",
      "name": "Ootouge",
      "nameEn": "Ootouge",
      "lat": 35.1391,
      "lon": 137.6554,
      "altitude": 954,
      "points": 6,
      "activations": 12,
      "bonus": 0
    },
    {
      "ref": "JA/AC-011",
      "name": "Ureyama",
      "nameEn": "Ureyama",
      "lat": 35.0228,
      "lon": 137.5979,
      "altitude": 929,
      "points": 6,
      "activations": 8,
      "bonus": 0
    },
    {
      "ref": "JA/AC-012",
      "name": "Hanareyama",
      "nameEn": "Hanareyama",
      "lat": 35.1127,
      "lon": 137.77699,
      "altitude": 917,
      "points": 6,
      "activations": 4,
      "bonus": 0
    },
    {
      "ref": "JA/AC-013",
      "name": "Near Kurakakeyama",
      "nameEn": "Near Kurakakeyama",
      "lat": 35.0579,
      "lon": 137.5799,
      "altitude": 888,
      "points": 6,
      "activations": 7,
      "bonus": 0
    },
    {
      "ref": "JA/AC-014",
      "name": "Mizunashiyama",
      "nameEn": "Mizunashiyama",
      "lat": 35.1409,
      "lon": 137.6266,
      "altitude": 866,
      "points": 6,
      "activations": 6,
      "bonus": 0
    },
    {
      "ref": "JA/AC-015",
      "name": "JA/AC-015",
      "nameEn": "JA/AC-015",
      "lat": 35.2246,
      "lon": 137.4794,
      "altitude": 865,
      "points": 6,
      "activations": 9,
      "bonus": 0
    },
    {
      "ref": "JA/AC-016",
      "name": "Gotenyama",
      "nameEn": "Gotenyama",
      "lat": 35.0867,
      "lon": 137.6611,
      "altitude": 789,
      "points": 4,
      "activations": 7,
      "bonus": 0
    },
    {
      "ref": "JA/AC-017",
      "name": "Honguusan",
      "nameEn": "Honguusan",
      "lat": 34.9098,
      "lon": 137.4205,
      "altitude": 789,
      "points": 4,
      "activations": 52,
      "bonus": 0
    },
    {
      "ref": "JA/AC-018",
      "name": "Uzu",
      "nameEn": "Uzu",
      "lat": 35.085,
      "lon": 137.63161,
      "altitude": 757,
      "points": 4,
      "activations": 5,
      "bonus": 0
    },
    {
      "ref": "JA/AC-019",
      "name": "Nokiyama",
      "nameEn": "Nokiyama",
      "lat": 35.0946,
      "lon": 137.7151,
      "altitude": 717,
      "points": 4,
      "activations": 7,
      "bonus": 0
    },
    {
      "ref": "JA/AC-020",
      "name": "Nishiyama(soneyama)",
      "nameEn": "Nishiyama(soneyama)",
      "lat": 35.2809,
      "lon": 137.26041,
      "altitude": 712,
      "points": 4,
      "activations": 28,
      "bonus": 0
    },
    {
      "ref": "JA/AC-021",
      "name": "Mikuniyama",
      "nameEn": "Mikuniyama",
      "lat": 35.2549,
      "lon": 137.1902,
      "altitude": 701,
      "points": 4,
      "activations": 58,
      "bonus": 0
    },
    {
      "ref": "JA/AC-022",
      "name": "Houraijisan",
      "nameEn": "Houraijisan",
      "lat": 34.984,
      "lon": 137.58279,
      "altitude": 695,
      "points": 4,
      "activations": 15,
      "bonus": 0
    },
    {
      "ref": "JA/AC-023",
      "name": "Sunagaganpou",
      "nameEn": "Sunagaganpou",
      "lat": 34.9407,
      "lon": 137.4931,
      "altitude": 688,
      "points": 4,
      "activations": 4,
      "bonus": 0
    },
    {
      "ref": "JA/AC-024",
      "name": "Hourokusan",
      "nameEn": "Hourokusan",
      "lat": 35.0603,
      "lon": 137.3029,
      "altitude": 684,
      "points": 4,
      "activations": 28,
      "bonus": 0
    },
    {
      "ref": "JA/AC-025",
      "name": "JA/AC-025",
      "nameEn": "JA/AC-025",
      "lat": 35.2018,
      "lon": 137.17239,
      "altitude": 632,
      "points": 2,
      "activations": 30,
      "bonus": 0
    },
    {
      "ref": "JA/AC-026",
      "name": "Rokusyosan",
      "nameEn": "Rokusyosan",
      "lat": 35.0549,
      "lon": 137.28419,
      "altitude": 611,
      "points": 2,
      "activations": 19,
      "bonus": 0
    },
    {
      "ref": "JA/AC-027",
      "name": "Koudosan",
      "nameEn": "Koudosan",
      "lat": 34.9848,
      "lon": 137.65041,
      "altitude": 583,
      "points": 2,
      "activations": 6,
      "bonus": 0
    },
    {
      "ref": "JA/AC-028",
      "name": "JA/AC-028",
      "nameEn": "JA/AC-028",
      "lat": 35.0158,
      "lon": 137.53889,
      "altitude": 524,
      "points": 2,
      "activations": 5,
      "bonus": 0
    },
    {
      "ref": "JA/AC-029",
      "name": "Tokosabuyama",
      "nameEn": "Tokosabuyama",
      "lat": 34.8984,
      "lon": 137.57471,
      "altitude": 482,
      "points": 1,
      "activations": 6,
      "bonus": 0
    },
    {
      "ref": "JA/AC-030",
      "name": "Ooshiromura",
      "nameEn": "Ooshiromura",
      "lat": 34.9136,
      "lon": 137.3541,
      "altitude": 477,
      "points": 1,
      "activations": 1,
      "bonus": 0
    },
    {
      "ref": "JA/AC-031",
      "name": "Goisan",
      "nameEn": "Goisan",
      "lat": 34.8471,
      "lon": 137.25909,
      "altitude": 454,
      "points": 1,
      "activations": 25,
      "bonus": 0
    },
    {
      "ref": "JA/AC-032",
      "name": "Kyougamine",
      "nameEn": "Kyougamine",
      "lat": 34.9007,
      "lon": 137.3226,
      "altitude": 442,
      "points": 1,
      "activations": 10,
      "bonus": 0
    },
    {
      "ref": "JA/AC-033",
      "name": "JA/AC-033",
      "nameEn": "JA/AC-033",
      "lat": 34.9567,
      "lon": 137.5609,
      "altitude": 410,
      "points": 1,
      "activations": 5,
      "bonus": 0
    },
    {
      "ref": "JA/AC-034",
      "name": "Kichijyozan",
      "nameEn": "Kichijyozan",
      "lat": 34.8577,
      "lon": 137.4783,
      "altitude": 383,
      "points": 1,
      "activations": 14,
      "bonus": 0
    },
    {
      "ref": "JA/AC-035",
      "name": "Hiyoshimura1",
      "nameEn": "Hiyoshimura1",
      "lat": 34.887,
      "lon": 137.5246,
      "altitude": 356,
      "points": 1,
      "activations": 10,
      "bonus": 0
    },
    {
      "ref": "JA/AC-036",
      "name": "Sanganesan",
      "nameEn": "Sanganesan",
      "lat": 34.8132,
      "lon": 137.15739,
      "altitude": 330,
      "points": 1,
      "activations": 4,
      "bonus": 0
    },
    {
      "ref": "JA/AC-037",
      "name": "Ooyama",
      "nameEn": "Ooyama",
      "lat": 34.6021,
      "lon": 137.14639,
      "altitude": 328,
      "points": 1,
      "activations": 19,
      "bonus": 0
    },
    {
      "ref": "JA/AC-038",
      "name": "Ooshima",
      "nameEn": "Ooshima",
      "lat": 35.1192,
      "lon": 137.2686,
      "altitude": 326,
      "points": 1,
      "activations": 6,
      "bonus": 0
    },
    {
      "ref": "JA/AC-039",
      "name": "Kinugasayama",
      "nameEn": "Kinugasayama",
      "lat": 34.6756,
      "lon": 137.2399,
      "altitude": 278,
      "points": 1,
      "activations": 18,
      "bonus": 0
    },
    {
      "ref": "JA/AC-040",
      "name": "Ooboratouge",
      "nameEn": "Ooboratouge",
      "lat": 35.2173,
      "lon": 137.46291,
      "altitude": 868,
      "points": 6,
      "activations": 19,
      "bonus": 0
    },
    {
      "ref": "JA/AC-041",
      "name": "Ebi",
      "nameEn": "Ebi",
      "lat": 35.0375,
      "lon": 137.57671,
      "altitude": 762,
      "points": 4,
      "activations": 6,
      "bonus": 0
    },
    {
      "ref": "JA/AC-042",
      "name": "Near Tomoeyama",
      "nameEn": "Near Tomoeyama",
      "lat": 34.976,
      "lon": 137.4019,
      "altitude": 732,
      "points": 4,
      "activations": 18,
      "bonus": 0
    },
    {
      "ref": "JA/AC-043",
      "name": "Takatsuka",
      "nameEn": "Takatsuka",
      "lat": 35.067,
      "lon": 137.71471,
      "altitude": 581,
      "points": 2,
      "activations": 4,
      "bonus": 0
    },
    {
      "ref": "JA/AC-044",
      "name": "Takanogozenyama",
      "nameEn": "Takanogozenyama",
      "lat": 34.9101,
      "lon": 137.3549,
      "altitude": 480,
      "points": 1,
      "activations": 10,
      "bonus": 0
    },
    {
      "ref": "JA/AC-045",
      "name": "Sanganesan",
      "nameEn": "Sanganesan",
      "lat": 34.8138,
      "lon": 137.15089,
      "altitude": 348,
      "points": 1,
      "activations": 28,
      "bonus": 0
    },
    {
      "ref": "JA/AC-046",
      "name": "Motomiyayama",
      "nameEn": "Motomiyayama",
      "lat": 35.3338,
      "lon": 136.97971,
      "altitude": 293,
      "points": 1,
      "activations": 30,
      "bonus": 0
    },
    {
      "ref": "JA/AC-047",
      "name": "Nishiochausuyama",
      "nameEn": "Nishiochausuyama",
      "lat": 34.8436,
      "lon": 137.123,
      "altitude": 291,
      "points": 1,
      "activations": 17,
      "bonus": 0
    },
    {
      "ref": "JA/AC-048",
      "name": "Zaousan",
      "nameEn": "Zaousan",
      "lat": 34.685,
      "lon": 137.2621,
      "altitude": 250,
      "points": 1,
      "activations": 24,
      "bonus": 0
    },
    {
      "ref": "JA/AC-049",
      "name": "Nikouyama(Kiotoshiyama)",
      "nameEn": "Nikouyama(Kiotoshiyama)",
      "lat": 34.6685,
      "lon": 137.20889,
      "altitude": 223,
      "points": 1,
      "activations": 10,
      "bonus": 0
    },
    {
      "ref": "JA/AC-050",
      "name": "Ootogisu",
      "nameEn": "Ootogisu",
      "lat": 34.6476,
      "lon": 137.1877,
      "altitude": 215,
      "points": 1,
      "activations": 11,
      "bonus": 0
    },
    {
      "ref": "JA/AC-051",
      "name": "Toboneyama",
      "nameEn": "Toboneyama",
      "lat": 34.8565,
      "lon": 137.20599,
      "altitude": 443,
      "points": 1,
      "activations": 15,
      "bonus": 0
    },
    {
      "ref": "JA/AC-052",
      "name": "Owarifuji",
      "nameEn": "Owarifuji",
      "lat": 35.3445,
      "lon": 136.9839,
      "altitude": 275,
      "points": 1,
      "activations": 22,
      "bonus": 0
    },
    {
      "ref": "JA/AC-053",
      "name": "Omurayama",
      "nameEn": "Omurayama",
      "lat": 34.6235,
      "lon": 137.218,
      "altitude": 189,
      "points": 1,
      "activations": 7,
      "bonus": 0
    },
    {
      "ref": "JA/AM-001",
      "name": "Iwakisan",
      "nameEn": "Iwakisan",
      "lat": 40.6559,
      "lon": 140.30299,
      "altitude": 1625,
      "points": 10,
      "activations": 33,
      "bonus": 3
    },
    {
      "ref": "JA/AM-002",
      "name": "Hakkoudasan (Oodake)",
      "nameEn": "Hakkoudasan (Oodake)",
      "lat": 40.6589,
      "lon": 140.8773,
      "altitude": 1585,
      "points": 10,
      "activations": 24,
      "bonus": 3
    },
    {
      "ref": "JA/AM-003",
      "name": "Kushigamine (Kamidake)",
      "nameEn": "Kushigamine (Kamidake)",
      "lat": 40.6032,
      "lon": 140.84261,
      "altitude": 1517,
      "points": 10,
      "activations": 5,
      "bonus": 3
    },
    {
      "ref": "JA/AM-004",
      "name": "Mukaishirakamidake",
      "nameEn": "Mukaishirakamidake",
      "lat": 40.5239,
      "lon": 140.04539,
      "altitude": 1250,
      "points": 8,
      "activations": 1,
      "bonus": 3
    },
    {
      "ref": "JA/AM-005",
      "name": "Heraidake (Mitsudake)",
      "nameEn": "Heraidake (Mitsudake)",
      "lat": 40.4529,
      "lon": 141.0015,
      "altitude": 1159,
      "points": 8,
      "activations": 1,
      "bonus": 3
    },
    {
      "ref": "JA/AM-006",
      "name": "Jinbadake",
      "nameEn": "Jinbadake",
      "lat": 40.4814,
      "lon": 140.3273,
      "altitude": 1050,
      "points": 6,
      "activations": 0,
      "bonus": 0
    },
    {
      "ref": "JA/AM-007",
      "name": "Kuromori",
      "nameEn": "Kuromori",
      "lat": 40.6472,
      "lon": 140.9552,
      "altitude": 1023,
      "points": 6,
      "activations": 0,
      "bonus": 0
    },
    {
      "ref": "JA/AM-008",
      "name": "Hachimandake",
      "nameEn": "Hachimandake",
      "lat": 40.7032,
      "lon": 140.99879,
      "altitude": 1020,
      "points": 6,
      "activations": 3,
      "bonus": 0
    },
    {
      "ref": "JA/AM-009",
      "name": "Masugadake",
      "nameEn": "Masugadake",
      "lat": 40.4828,
      "lon": 140.09959,
      "altitude": 1012,
      "points": 6,
      "activations": 0,
      "bonus": 0
    },
    {
      "ref": "JA/AM-010",
      "name": "Aogadake",
      "nameEn": "Aogadake",
      "lat": 40.4517,
      "lon": 140.1841,
      "altitude": 1000,
      "points": 6,
      "activations": 0,
      "bonus": 0
    },
    {
      "ref": "JA/AM-011",
      "name": "Near Kenashiyama",
      "nameEn": "Near Kenashiyama",
      "lat": 40.5637,
      "lon": 140.7579,
      "altitude": 985,
      "points": 6,
      "activations": 0,
      "bonus": 0
    },
    {
      "ref": "JA/AM-012",
      "name": "Futase",
      "nameEn": "Futase",
      "lat": 40.596,
      "lon": 140.0426,
      "altitude": 958,
      "points": 6,
      "activations": 0,
      "bonus": 0
    },
    {
      "ref": "JA/AM-013",
      "name": "Tengudake",
      "nameEn": "Tengudake",
      "lat": 40.5271,
      "lon": 140.0843,
      "altitude": 958,
      "points": 6,
      "activations": 2,
      "bonus": 0
    },
    {
      "ref": "JA/AM-014",
      "name": "JA/AM-014",
      "nameEn": "JA/AM-014",
      "lat": 40.4779,
      "lon": 140.4485,
      "altitude": 956,
      "points": 6,
      "activations": 0,
      "bonus": 0
    },
    {
      "ref": "JA/AM-015",
      "name": "Shimotozawa",
      "nameEn": "Shimotozawa",
      "lat": 40.5712,
      "lon": 140.09869,
      "altitude": 930,
      "points": 6,
      "activations": 0,
      "bonus": 0
    },
    {
      "ref": "JA/AM-016",
      "name": "Origamiyama",
      "nameEn": "Origamiyama",
      "lat": 40.7616,
      "lon": 140.91969,
      "altitude": 921,
      "points": 6,
      "activations": 0,
      "bonus": 0
    },
    {
      "ref": "JA/AM-017",
      "name": "Aogayama",
      "nameEn": "Aogayama",
      "lat": 40.6549,
      "lon": 140.09869,
      "altitude": 891,
      "points": 6,
      "activations": 0,
      "bonus": 0
    },
    {
      "ref": "JA/AM-018",
      "name": "Rangannomori",
      "nameEn": "Rangannomori",
      "lat": 40.5796,
      "lon": 140.1555,
      "altitude": 885,
      "points": 6,
      "activations": 0,
      "bonus": 0
    },
    {
      "ref": "JA/AM-019",
      "name": "Oonaruki",
      "nameEn": "Oonaruki",
      "lat": 40.6059,
      "lon": 140.1476,
      "altitude": 879,
      "points": 6,
      "activations": 0,
      "bonus": 0
    },
    {
      "ref": "JA/AM-020",
      "name": "Kamafuseyama",
      "nameEn": "Kamafuseyama",
      "lat": 41.2785,
      "lon": 141.12,
      "altitude": 878,
      "points": 6,
      "activations": 3,
      "bonus": 0
    },
    {
      "ref": "JA/AM-021",
      "name": "Asahinadake",
      "nameEn": "Asahinadake",
      "lat": 41.3277,
      "lon": 141.0249,
      "altitude": 874,
      "points": 6,
      "activations": 0,
      "bonus": 0
    },
    {
      "ref": "JA/AM-022",
      "name": "Raibachimori",
      "nameEn": "Raibachimori",
      "lat": 40.3285,
      "lon": 140.9949,
      "altitude": 874,
      "points": 6,
      "activations": 0,
      "bonus": 0
    },
    {
      "ref": "JA/AM-023",
      "name": "Yosukedoumori",
      "nameEn": "Yosukedoumori",
      "lat": 40.3083,
      "lon": 140.9572,
      "altitude": 841,
      "points": 4,
      "activations": 0,
      "bonus": 0
    },
    {
      "ref": "JA/AM-024",
      "name": "Takakuramori",
      "nameEn": "Takakuramori",
      "lat": 40.5407,
      "lon": 140.164,
      "altitude": 829,
      "points": 4,
      "activations": 2,
      "bonus": 0
    },
    {
      "ref": "JA/AM-025",
      "name": "Daijinyama",
      "nameEn": "Daijinyama",
      "lat": 41.293,
      "lon": 141.06841,
      "altitude": 827,
      "points": 4,
      "activations": 1,
      "bonus": 0
    },
    {
      "ref": "JA/AM-026",
      "name": "Masugatayama",
      "nameEn": "Masugatayama",
      "lat": 40.6761,
      "lon": 140.04829,
      "altitude": 820,
      "points": 4,
      "activations": 0,
      "bonus": 0
    },
    {
      "ref": "JA/AM-027",
      "name": "Dokonomori",
      "nameEn": "Dokonomori",
      "lat": 40.3851,
      "lon": 141.0246,
      "altitude": 804,
      "points": 4,
      "activations": 0,
      "bonus": 0
    },
    {
      "ref": "JA/AM-028",
      "name": "Kuromoriyama",
      "nameEn": "Kuromoriyama",
      "lat": 40.2727,
      "lon": 141.0025,
      "altitude": 803,
      "points": 4,
      "activations": 0,
      "bonus": 0
    },
    {
      "ref": "JA/AM-029",
      "name": "Serizawa",
      "nameEn": "Serizawa",
      "lat": 40.501,
      "lon": 140.2484,
      "altitude": 789,
      "points": 4,
      "activations": 0,
      "bonus": 0
    },
    {
      "ref": "JA/AM-030",
      "name": "Hiuchidake",
      "nameEn": "Hiuchidake",
      "lat": 41.4391,
      "lon": 141.0529,
      "altitude": 781,
      "points": 4,
      "activations": 0,
      "bonus": 0
    },
    {
      "ref": "JA/AM-031",
      "name": "Daisakuyama",
      "nameEn": "Daisakuyama",
      "lat": 41.3245,
      "lon": 140.86,
      "altitude": 776,
      "points": 4,
      "activations": 0,
      "bonus": 0
    },
    {
      "ref": "JA/AM-032",
      "name": "Tashiroyama",
      "nameEn": "Tashiroyama",
      "lat": 40.5991,
      "lon": 140.71581,
      "altitude": 768,
      "points": 4,
      "activations": 0,
      "bonus": 0
    },
    {
      "ref": "JA/AM-033",
      "name": "Sankakudake",
      "nameEn": "Sankakudake",
      "lat": 40.8062,
      "lon": 140.98039,
      "altitude": 753,
      "points": 4,
      "activations": 0,
      "bonus": 0
    },
    {
      "ref": "JA/AM-034",
      "name": "JA/AM-034",
      "nameEn": "JA/AM-034",
      "lat": 40.4505,
      "lon": 139.9902,
      "altitude": 748,
      "points": 4,
      "activations": 0,
      "bonus": 0
    },
    {
      "ref": "JA/AM-035",
      "name": "Sasanagareyama",
      "nameEn": "Sasanagareyama",
      "lat": 40.6966,
      "lon": 140.0459,
      "altitude": 732,
      "points": 4,
      "activations": 0,
      "bonus": 0
    },
    {
      "ref": "JA/AM-036",
      "name": "Shikarigadake",
      "nameEn": "Shikarigadake",
      "lat": 40.664,
      "lon": 140.16389,
      "altitude": 731,
      "points": 4,
      "activations": 0,
      "bonus": 0
    },
    {
      "ref": "JA/AM-037",
      "name": "Eboshidake",
      "nameEn": "Eboshidake",
      "lat": 40.8404,
      "lon": 141.03951,
      "altitude": 720,
      "points": 4,
      "activations": 1,
      "bonus": 0
    },
    {
      "ref": "JA/AM-038",
      "name": "Ookuromori",
      "nameEn": "Ookuromori",
      "lat": 40.3621,
      "lon": 141.0528,
      "altitude": 719,
      "points": 4,
      "activations": 1,
      "bonus": 0
    },
    {
      "ref": "JA/AM-039",
      "name": "Maruyagatadake",
      "nameEn": "Maruyagatadake",
      "lat": 41.1528,
      "lon": 140.58659,
      "altitude": 718,
      "points": 4,
      "activations": 0,
      "bonus": 0
    },
    {
      "ref": "JA/AM-040",
      "name": "Masukawadake",
      "nameEn": "Masukawadake",
      "lat": 41.1418,
      "lon": 140.40199,
      "altitude": 714,
      "points": 4,
      "activations": 0,
      "bonus": 0
    },
    {
      "ref": "JA/AM-041",
      "name": "Ajarayama",
      "nameEn": "Ajarayama",
      "lat": 40.4936,
      "lon": 140.5932,
      "altitude": 710,
      "points": 4,
      "activations": 5,
      "bonus": 0
    },
    {
      "ref": "JA/AM-042",
      "name": "Hakamagoshidake",
      "nameEn": "Hakamagoshidake",
      "lat": 41.168,
      "lon": 140.5793,
      "altitude": 708,
      "points": 4,
      "activations": 0,
      "bonus": 0
    },
    {
      "ref": "JA/AM-043",
      "name": "Mikurayama",
      "nameEn": "Mikurayama",
      "lat": 40.4595,
      "lon": 140.9099,
      "altitude": 690,
      "points": 4,
      "activations": 0,
      "bonus": 0
    },
    {
      "ref": "JA/AM-044",
      "name": "Higashidake",
      "nameEn": "Higashidake",
      "lat": 40.8369,
      "lon": 140.89169,
      "altitude": 684,
      "points": 4,
      "activations": 1,
      "bonus": 0
    },
    {
      "ref": "JA/AM-045",
      "name": "Ookuradake",
      "nameEn": "Ookuradake",
      "lat": 40.9701,
      "lon": 140.54849,
      "altitude": 677,
      "points": 4,
      "activations": 0,
      "bonus": 0
    },
    {
      "ref": "JA/AM-046",
      "name": "Yotsudakiyama",
      "nameEn": "Yotsudakiyama",
      "lat": 41.1217,
      "lon": 140.4005,
      "altitude": 670,
      "points": 4,
      "activations": 0,
      "bonus": 0
    },
    {
      "ref": "JA/AM-047",
      "name": "Kudojiyama",
      "nameEn": "Kudojiyama",
      "lat": 40.5273,
      "lon": 140.4238,
      "altitude": 663,
      "points": 4,
      "activations": 1,
      "bonus": 0
    },
    {
      "ref": "JA/AM-048",
      "name": "Andoyama",
      "nameEn": "Andoyama",
      "lat": 41.2388,
      "lon": 140.81641,
      "altitude": 646,
      "points": 2,
      "activations": 0,
      "bonus": 0
    },
    {
      "ref": "JA/AM-049",
      "name": "Akiyama",
      "nameEn": "Akiyama",
      "lat": 41.2367,
      "lon": 140.87891,
      "altitude": 631,
      "points": 2,
      "activations": 0,
      "bonus": 0
    },
    {
      "ref": "JA/AM-050",
      "name": "Hakamagoshidake",
      "nameEn": "Hakamagoshidake",
      "lat": 40.9956,
      "lon": 140.52161,
      "altitude": 628,
      "points": 2,
      "activations": 0,
      "bonus": 0
    },
    {
      "ref": "JA/AM-051",
      "name": "Metakiyama",
      "nameEn": "Metakiyama",
      "lat": 41.4391,
      "lon": 140.9752,
      "altitude": 618,
      "points": 2,
      "activations": 0,
      "bonus": 0
    },
    {
      "ref": "JA/AM-052",
      "name": "Nakuidake",
      "nameEn": "Nakuidake",
      "lat": 40.388,
      "lon": 141.3084,
      "altitude": 615,
      "points": 2,
      "activations": 7,
      "bonus": 0
    },
    {
      "ref": "JA/AM-053",
      "name": "Toyamori",
      "nameEn": "Toyamori",
      "lat": 40.4634,
      "lon": 140.5629,
      "altitude": 612,
      "points": 2,
      "activations": 0,
      "bonus": 0
    },
    {
      "ref": "JA/AM-054",
      "name": "Hamanadake",
      "nameEn": "Hamanadake",
      "lat": 41.1448,
      "lon": 140.4389,
      "altitude": 603,
      "points": 2,
      "activations": 0,
      "bonus": 0
    },
    {
      "ref": "JA/AM-055",
      "name": "Ganmori",
      "nameEn": "Ganmori",
      "lat": 40.5286,
      "lon": 140.3947,
      "altitude": 588,
      "points": 2,
      "activations": 0,
      "bonus": 0
    },
    {
      "ref": "JA/AM-056",
      "name": "Yagataishiyama",
      "nameEn": "Yagataishiyama",
      "lat": 41.1737,
      "lon": 140.37109,
      "altitude": 587,
      "points": 2,
      "activations": 0,
      "bonus": 0
    },
    {
      "ref": "JA/AM-057",
      "name": "Yasuteyama",
      "nameEn": "Yasuteyama",
      "lat": 40.5511,
      "lon": 140.649,
      "altitude": 564,
      "points": 2,
      "activations": 0,
      "bonus": 0
    },
    {
      "ref": "JA/AM-058",
      "name": "Kamanosawa",
      "nameEn": "Kamanosawa",
      "lat": 41.2122,
      "lon": 140.3688,
      "altitude": 556,
      "points": 2,
      "activations": 0,
      "bonus": 0
    },
    {
      "ref": "JA/AM-059",
      "name": "JA/AM-059",
      "nameEn": "JA/AM-059",
      "lat": 41.0888,
      "lon": 141.3446,
      "altitude": 551,
      "points": 2,
      "activations": 0,
      "bonus": 0
    },
    {
      "ref": "JA/AM-060",
      "name": "Ohoudake",
      "nameEn": "Ohoudake",
      "lat": 41.2629,
      "lon": 140.9574,
      "altitude": 550,
      "points": 2,
      "activations": 0,
      "bonus": 0
    },
    {
      "ref": "JA/AM-061",
      "name": "Umanokamiyama",
      "nameEn": "Umanokamiyama",
      "lat": 40.8289,
      "lon": 140.5771,
      "altitude": 549,
      "points": 2,
      "activations": 1,
      "bonus": 0
    },
    {
      "ref": "JA/AM-062",
      "name": "Takadouyama",
      "nameEn": "Takadouyama",
      "lat": 40.3964,
      "lon": 141.1326,
      "altitude": 539,
      "points": 2,
      "activations": 0,
      "bonus": 0
    },
    {
      "ref": "JA/AM-063",
      "name": "JA/AM-063",
      "nameEn": "JA/AM-063",
      "lat": 41.3132,
      "lon": 140.8222,
      "altitude": 516,
      "points": 2,
      "activations": 0,
      "bonus": 0
    },
    {
      "ref": "JA/AM-064",
      "name": "Obirakiyama",
      "nameEn": "Obirakiyama",
      "lat": 40.5247,
      "lon": 140.52499,
      "altitude": 510,
      "points": 2,
      "activations": 1,
      "bonus": 0
    },
    {
      "ref": "JA/AM-065",
      "name": "Mukounoyama",
      "nameEn": "Mukounoyama",
      "lat": 41.281,
      "lon": 140.9604,
      "altitude": 505,
      "points": 2,
      "activations": 0,
      "bonus": 0
    },
    {
      "ref": "JA/AM-066",
      "name": "Tanazawa",
      "nameEn": "Tanazawa",
      "lat": 41.0237,
      "lon": 141.3403,
      "altitude": 469,
      "points": 1,
      "activations": 1,
      "bonus": 0
    },
    {
      "ref": "JA/AM-067",
      "name": "Kuwahatayama",
      "nameEn": "Kuwahatayama",
      "lat": 41.3876,
      "lon": 141.4407,
      "altitude": 400,
      "points": 1,
      "activations": 1,
      "bonus": 0
    },
    {
      "ref": "JA/AM-068",
      "name": "Takamoriyama",
      "nameEn": "Takamoriyama",
      "lat": 40.8961,
      "lon": 140.8914,
      "altitude": 386,
      "points": 1,
      "activations": 1,
      "bonus": 0
    },
    {
      "ref": "JA/AM-069",
      "name": "Kouchiyama",
      "nameEn": "Kouchiyama",
      "lat": 40.8812,
      "lon": 140.9201,
      "altitude": 366,
      "points": 1,
      "activations": 0,
      "bonus": 0
    },
    {
      "ref": "JA/AM-070",
      "name": "JA/AM-070",
      "nameEn": "JA/AM-070",
      "lat": 41.2013,
      "lon": 140.78169,
      "altitude": 338,
      "points": 1,
      "activations": 0,
      "bonus": 0
    },
    {
      "ref": "JA/AM-071",
      "name": "Mizugasawayama",
      "nameEn": "Mizugasawayama",
      "lat": 40.9527,
      "lon": 140.9158,
      "altitude": 323,
      "points": 1,
      "activations": 1,
      "bonus": 0
    },
    {
      "ref": "JA/AM-072",
      "name": "Katazakiyama",
      "nameEn": "Katazakiyama",
      "lat": 41.3273,
      "lon": 141.4059,
      "altitude": 301,
      "points": 1,
      "activations": 0,
      "bonus": 0
    },
    {
      "ref": "JA/AM-073",
      "name": "Takadaoodake",
      "nameEn": "Takadaoodake",
      "lat": 40.6527,
      "lon": 140.9084,
      "altitude": 1552,
      "points": 10,
      "activations": 8,
      "bonus": 3
    },
    {
      "ref": "JA/AM-074",
      "name": "Norikuradake",
      "nameEn": "Norikuradake",
      "lat": 40.5979,
      "lon": 140.88969,
      "altitude": 1449,
      "points": 8,
      "activations": 1,
      "bonus": 3
    },
    {
      "ref": "JA/AM-075",
      "name": "Hinadake",
      "nameEn": "Hinadake",
      "lat": 40.6606,
      "lon": 140.9249,
      "altitude": 1240,
      "points": 8,
      "activations": 5,
      "bonus": 3
    },
    {
      "ref": "JA/AM-076",
      "name": "Shirakamidake",
      "nameEn": "Shirakamidake",
      "lat": 40.5074,
      "lon": 140.0182,
      "altitude": 1235,
      "points": 8,
      "activations": 7,
      "bonus": 3
    },
    {
      "ref": "JA/AM-077",
      "name": "Towadayama",
      "nameEn": "Towadayama",
      "lat": 40.4625,
      "lon": 140.97099,
      "altitude": 1054,
      "points": 6,
      "activations": 2,
      "bonus": 0
    },
    {
      "ref": "JA/AM-078",
      "name": "Chausuyama",
      "nameEn": "Chausuyama",
      "lat": 40.6085,
      "lon": 140.0312,
      "altitude": 896,
      "points": 6,
      "activations": 1,
      "bonus": 0
    },
    {
      "ref": "JA/AM-079",
      "name": "Nanajyumoriyama",
      "nameEn": "Nanajyumoriyama",
      "lat": 40.729,
      "lon": 140.9165,
      "altitude": 886,
      "points": 6,
      "activations": 0,
      "bonus": 0
    },
    {
      "ref": "JA/AM-080",
      "name": "Takamoriyama",
      "nameEn": "Takamoriyama",
      "lat": 40.7317,
      "lon": 140.97701,
      "altitude": 834,
      "points": 4,
      "activations": 0,
      "bonus": 0
    },
    {
      "ref": "JA/AM-081",
      "name": "Kinashidake",
      "nameEn": "Kinashidake",
      "lat": 41.1516,
      "lon": 140.5728,
      "altitude": 686,
      "points": 4,
      "activations": 0,
      "bonus": 0
    },
    {
      "ref": "JA/AM-082",
      "name": "Maruyama",
      "nameEn": "Maruyama",
      "lat": 41.2992,
      "lon": 140.82809,
      "altitude": 511,
      "points": 2,
      "activations": 0,
      "bonus": 0
    },
    {
      "ref": "JA/AM-083",
      "name": "JA/AM-083",
      "nameEn": "JA/AM-083",
      "lat": 41.1127,
      "lon": 140.472,
      "altitude": 447,
      "points": 1,
      "activations": 0,
      "bonus": 0
    },
    {
      "ref": "JA/AM-084",
      "name": "Gankeyama",
      "nameEn": "Gankeyama",
      "lat": 41.1583,
      "lon": 140.78329,
      "altitude": 304,
      "points": 1,
      "activations": 0,
      "bonus": 0
    },
    {
      "ref": "JA/AM-085",
      "name": "Hikinokoshiyama",
      "nameEn": "Hikinokoshiyama",
      "lat": 40.8941,
      "lon": 140.9649,
      "altitude": 267,
      "points": 1,
      "activations": 2,
      "bonus": 0
    },
    {
      "ref": "JA/AM-086",
      "name": "Namiuchiyama",
      "nameEn": "Namiuchiyama",
      "lat": 40.9317,
      "lon": 140.8759,
      "altitude": 232,
      "points": 1,
      "activations": 1,
      "bonus": 0
    },
    {
      "ref": "JA/AM-087",
      "name": "Ozakiyama",
      "nameEn": "Ozakiyama",
      "lat": 41.1266,
      "lon": 140.2531,
      "altitude": 230,
      "points": 1,
      "activations": 0,
      "bonus": 0
    },
    {
      "ref": "JA/AT-001",
      "name": "Komagatake (Onamedake)",
      "nameEn": "Komagatake (Onamedake)",
      "lat": 39.7611,
      "lon": 140.79939,
      "altitude": 1637,
      "points": 10,
      "activations": 31,
      "bonus": 3
    },
    {
      "ref": "JA/AT-002",
      "name": "Moriyoshizan",
      "nameEn": "Moriyoshizan",
      "lat": 39.9768,
      "lon": 140.5442,
      "altitude": 1454,
      "points": 8,
      "activations": 9,
      "bonus": 3
    },
    {
      "ref": "JA/AT-003",
      "name": "Toragesan",
      "nameEn": "Toragesan",
      "lat": 38.9046,
      "lon": 140.6188,
      "altitude": 1433,
      "points": 8,
      "activations": 2,
      "bonus": 3
    },
    {
      "ref": "JA/AT-004",
      "name": "Asahidake",
      "nameEn": "Asahidake",
      "lat": 39.6102,
      "lon": 140.7728,
      "altitude": 1376,
      "points": 8,
      "activations": 1,
      "bonus": 3
    },
    {
      "ref": "JA/AT-005",
      "name": "Yakeyama",
      "nameEn": "Yakeyama",
      "lat": 39.9638,
      "lon": 140.757,
      "altitude": 1366,
      "points": 8,
      "activations": 6,
      "bonus": 3
    },
    {
      "ref": "JA/AT-006",
      "name": "Kamurosan",
      "nameEn": "Kamurosan",
      "lat": 38.9023,
      "lon": 140.49229,
      "altitude": 1365,
      "points": 8,
      "activations": 3,
      "bonus": 3
    },
    {
      "ref": "JA/AT-007",
      "name": "Takamatsudake",
      "nameEn": "Takamatsudake",
      "lat": 38.9677,
      "lon": 140.60629,
      "altitude": 1348,
      "points": 8,
      "activations": 2,
      "bonus": 3
    },
    {
      "ref": "JA/AT-008",
      "name": "Kurasawayama",
      "nameEn": "Kurasawayama",
      "lat": 39.9002,
      "lon": 140.7774,
      "altitude": 1300,
      "points": 8,
      "activations": 0,
      "bonus": 3
    },
    {
      "ref": "JA/AT-009",
      "name": "Kayoudake",
      "nameEn": "Kayoudake",
      "lat": 39.8064,
      "lon": 140.7308,
      "altitude": 1254,
      "points": 8,
      "activations": 1,
      "bonus": 3
    },
    {
      "ref": "JA/AT-010",
      "name": "Sanboukou",
      "nameEn": "Sanboukou",
      "lat": 40.0204,
      "lon": 140.7605,
      "altitude": 1222,
      "points": 8,
      "activations": 1,
      "bonus": 3
    },
    {
      "ref": "JA/AT-011",
      "name": "Ikusazawadake",
      "nameEn": "Ikusazawadake",
      "lat": 38.8928,
      "lon": 140.5452,
      "altitude": 1193,
      "points": 8,
      "activations": 1,
      "bonus": 3
    },
    {
      "ref": "JA/AT-012",
      "name": "Maemoriyama",
      "nameEn": "Maemoriyama",
      "lat": 38.9221,
      "lon": 140.6188,
      "altitude": 1189,
      "points": 8,
      "activations": 0,
      "bonus": 3
    },
    {
      "ref": "JA/AT-013",
      "name": "Shirakomori",
      "nameEn": "Shirakomori",
      "lat": 39.8358,
      "lon": 140.40131,
      "altitude": 1179,
      "points": 8,
      "activations": 1,
      "bonus": 3
    },
    {
      "ref": "JA/AT-014",
      "name": "Tashirodake",
      "nameEn": "Tashirodake",
      "lat": 40.4285,
      "lon": 140.40891,
      "altitude": 1178,
      "points": 8,
      "activations": 1,
      "bonus": 3
    },
    {
      "ref": "JA/AT-015",
      "name": "Shiroiwadake",
      "nameEn": "Shiroiwadake",
      "lat": 39.589,
      "lon": 140.6951,
      "altitude": 1177,
      "points": 8,
      "activations": 1,
      "bonus": 3
    },
    {
      "ref": "JA/AT-016",
      "name": "Taiheizan",
      "nameEn": "Taiheizan",
      "lat": 39.797,
      "lon": 140.3107,
      "altitude": 1170,
      "points": 8,
      "activations": 9,
      "bonus": 3
    },
    {
      "ref": "JA/AT-017",
      "name": "Hiranomatsuyama",
      "nameEn": "Hiranomatsuyama",
      "lat": 39.0387,
      "lon": 140.77789,
      "altitude": 1169,
      "points": 8,
      "activations": 0,
      "bonus": 3
    },
    {
      "ref": "JA/AT-018",
      "name": "Daibutsudake",
      "nameEn": "Daibutsudake",
      "lat": 39.8136,
      "lon": 140.51559,
      "altitude": 1167,
      "points": 8,
      "activations": 1,
      "bonus": 3
    },
    {
      "ref": "JA/AT-019",
      "name": "Arisuyama",
      "nameEn": "Arisuyama",
      "lat": 39.1948,
      "lon": 140.7787,
      "altitude": 1162,
      "points": 8,
      "activations": 0,
      "bonus": 3
    },
    {
      "ref": "JA/AT-020",
      "name": "Komagatake",
      "nameEn": "Komagatake",
      "lat": 40.4129,
      "lon": 140.2511,
      "altitude": 1158,
      "points": 8,
      "activations": 1,
      "bonus": 3
    },
    {
      "ref": "JA/AT-021",
      "name": "Gonomiyadake",
      "nameEn": "Gonomiyadake",
      "lat": 40.1458,
      "lon": 140.8459,
      "altitude": 1115,
      "points": 8,
      "activations": 1,
      "bonus": 3
    },
    {
      "ref": "JA/AT-022",
      "name": "Tachimata",
      "nameEn": "Tachimata",
      "lat": 40.4415,
      "lon": 140.2534,
      "altitude": 1098,
      "points": 6,
      "activations": 0,
      "bonus": 0
    },
    {
      "ref": "JA/AT-023",
      "name": "Futatsumori",
      "nameEn": "Futatsumori",
      "lat": 40.4351,
      "lon": 140.1179,
      "altitude": 1087,
      "points": 6,
      "activations": 1,
      "bonus": 0
    },
    {
      "ref": "JA/AT-024",
      "name": "Ashikurayama",
      "nameEn": "Ashikurayama",
      "lat": 39.0265,
      "lon": 140.7036,
      "altitude": 1083,
      "points": 6,
      "activations": 0,
      "bonus": 0
    },
    {
      "ref": "JA/AT-025",
      "name": "JA/AT-025",
      "nameEn": "JA/AT-025",
      "lat": 39.8255,
      "lon": 140.35519,
      "altitude": 1067,
      "points": 6,
      "activations": 0,
      "bonus": 0
    },
    {
      "ref": "JA/AT-026",
      "name": "Ooishidake",
      "nameEn": "Ooishidake",
      "lat": 39.7294,
      "lon": 140.5071,
      "altitude": 1059,
      "points": 6,
      "activations": 1,
      "bonus": 0
    },
    {
      "ref": "JA/AT-027",
      "name": "Ryuugamori",
      "nameEn": "Ryuugamori",
      "lat": 40.1039,
      "lon": 140.59959,
      "altitude": 1050,
      "points": 6,
      "activations": 1,
      "bonus": 0
    },
    {
      "ref": "JA/AT-028",
      "name": "Kodake",
      "nameEn": "Kodake",
      "lat": 40.4328,
      "lon": 140.1978,
      "altitude": 1043,
      "points": 6,
      "activations": 1,
      "bonus": 0
    },
    {
      "ref": "JA/AT-029",
      "name": "Maruyama",
      "nameEn": "Maruyama",
      "lat": 40.4161,
      "lon": 140.1075,
      "altitude": 1039,
      "points": 6,
      "activations": 0,
      "bonus": 0
    },
    {
      "ref": "JA/AT-030",
      "name": "Shirojiyama",
      "nameEn": "Shirojiyama",
      "lat": 40.4472,
      "lon": 140.78819,
      "altitude": 1034,
      "points": 6,
      "activations": 1,
      "bonus": 0
    },
    {
      "ref": "JA/AT-031",
      "name": "Bandorimori",
      "nameEn": "Bandorimori",
      "lat": 39.7872,
      "lon": 140.4675,
      "altitude": 1033,
      "points": 6,
      "activations": 0,
      "bonus": 0
    },
    {
      "ref": "JA/AT-032",
      "name": "JA/AT-032",
      "nameEn": "JA/AT-032",
      "lat": 39.6909,
      "lon": 140.8157,
      "altitude": 1026,
      "points": 6,
      "activations": 0,
      "bonus": 0
    },
    {
      "ref": "JA/AT-033",
      "name": "Bunamori",
      "nameEn": "Bunamori",
      "lat": 39.9308,
      "lon": 140.63409,
      "altitude": 1016,
      "points": 6,
      "activations": 0,
      "bonus": 0
    },
    {
      "ref": "JA/AT-034",
      "name": "Korogeyama",
      "nameEn": "Korogeyama",
      "lat": 39.0205,
      "lon": 140.7402,
      "altitude": 1015,
      "points": 6,
      "activations": 0,
      "bonus": 0
    },
    {
      "ref": "JA/AT-035",
      "name": "Tokamisan",
      "nameEn": "Tokamisan",
      "lat": 39.0816,
      "lon": 140.19189,
      "altitude": 1008,
      "points": 6,
      "activations": 0,
      "bonus": 0
    },
    {
      "ref": "JA/AT-036",
      "name": "Kobinaiyama",
      "nameEn": "Kobinaiyama",
      "lat": 39.0209,
      "lon": 140.5208,
      "altitude": 1004,
      "points": 6,
      "activations": 0,
      "bonus": 0
    },
    {
      "ref": "JA/AT-037",
      "name": "Masedake",
      "nameEn": "Masedake",
      "lat": 40.4623,
      "lon": 140.0835,
      "altitude": 988,
      "points": 6,
      "activations": 0,
      "bonus": 0
    },
    {
      "ref": "JA/AT-038",
      "name": "Yakeyama",
      "nameEn": "Yakeyama",
      "lat": 40.3741,
      "lon": 140.1562,
      "altitude": 963,
      "points": 6,
      "activations": 0,
      "bonus": 0
    },
    {
      "ref": "JA/AT-039",
      "name": "Mikasayama",
      "nameEn": "Mikasayama",
      "lat": 40.4233,
      "lon": 140.2823,
      "altitude": 961,
      "points": 6,
      "activations": 0,
      "bonus": 0
    },
    {
      "ref": "JA/AT-040",
      "name": "JA/AT-040",
      "nameEn": "JA/AT-040",
      "lat": 40.4765,
      "lon": 140.3779,
      "altitude": 961,
      "points": 6,
      "activations": 0,
      "bonus": 0
    },
    {
      "ref": "JA/AT-041",
      "name": "Eboshiyama",
      "nameEn": "Eboshiyama",
      "lat": 39.0038,
      "lon": 140.4055,
      "altitude": 954,
      "points": 6,
      "activations": 0,
      "bonus": 0
    },
    {
      "ref": "JA/AT-042",
      "name": "Osabanaidake",
      "nameEn": "Osabanaidake",
      "lat": 40.3716,
      "lon": 140.1907,
      "altitude": 946,
      "points": 6,
      "activations": 0,
      "bonus": 0
    },
    {
      "ref": "JA/AT-043",
      "name": "Ubaidoyama",
      "nameEn": "Ubaidoyama",
      "lat": 39.0839,
      "lon": 140.3419,
      "altitude": 927,
      "points": 6,
      "activations": 0,
      "bonus": 0
    },
    {
      "ref": "JA/AT-044",
      "name": "Daisenyama",
      "nameEn": "Daisenyama",
      "lat": 39.0456,
      "lon": 140.3427,
      "altitude": 920,
      "points": 6,
      "activations": 0,
      "bonus": 0
    },
    {
      "ref": "JA/AT-045",
      "name": "Aizawayama",
      "nameEn": "Aizawayama",
      "lat": 39.6832,
      "lon": 140.76871,
      "altitude": 920,
      "points": 6,
      "activations": 0,
      "bonus": 0
    },
    {
      "ref": "JA/AT-046",
      "name": "Hachimori",
      "nameEn": "Hachimori",
      "lat": 40.1092,
      "lon": 140.81799,
      "altitude": 905,
      "points": 6,
      "activations": 0,
      "bonus": 0
    },
    {
      "ref": "JA/AT-047",
      "name": "Magozaemonyama",
      "nameEn": "Magozaemonyama",
      "lat": 40.4393,
      "lon": 140.47929,
      "altitude": 891,
      "points": 6,
      "activations": 0,
      "bonus": 0
    },
    {
      "ref": "JA/AT-048",
      "name": "Ogamiyama",
      "nameEn": "Ogamiyama",
      "lat": 39.8657,
      "lon": 140.66141,
      "altitude": 859,
      "points": 6,
      "activations": 0,
      "bonus": 0
    },
    {
      "ref": "JA/AT-049",
      "name": "Oomori",
      "nameEn": "Oomori",
      "lat": 39.8831,
      "lon": 140.52071,
      "altitude": 857,
      "points": 6,
      "activations": 0,
      "bonus": 0
    },
    {
      "ref": "JA/AT-050",
      "name": "Arasawa",
      "nameEn": "Arasawa",
      "lat": 39.7686,
      "lon": 140.40739,
      "altitude": 857,
      "points": 6,
      "activations": 0,
      "bonus": 0
    },
    {
      "ref": "JA/AT-051",
      "name": "Monomiyama",
      "nameEn": "Monomiyama",
      "lat": 40.3811,
      "lon": 140.29269,
      "altitude": 853,
      "points": 6,
      "activations": 0,
      "bonus": 0
    },
    {
      "ref": "JA/AT-052",
      "name": "Ogarasawa",
      "nameEn": "Ogarasawa",
      "lat": 40.1304,
      "lon": 140.5778,
      "altitude": 837,
      "points": 4,
      "activations": 0,
      "bonus": 0
    },
    {
      "ref": "JA/AT-053",
      "name": "Neretsudake",
      "nameEn": "Neretsudake",
      "lat": 39.9364,
      "lon": 140.3616,
      "altitude": 835,
      "points": 4,
      "activations": 0,
      "bonus": 0
    },
    {
      "ref": "JA/AT-054",
      "name": "Oohikageyama",
      "nameEn": "Oohikageyama",
      "lat": 40.4271,
      "lon": 140.5621,
      "altitude": 820,
      "points": 4,
      "activations": 0,
      "bonus": 0
    },
    {
      "ref": "JA/AT-055",
      "name": "Nanamaizawa",
      "nameEn": "Nanamaizawa",
      "lat": 40.4024,
      "lon": 140.3335,
      "altitude": 818,
      "points": 4,
      "activations": 0,
      "bonus": 0
    },
    {
      "ref": "JA/AT-056",
      "name": "Waseyama",
      "nameEn": "Waseyama",
      "lat": 40.1013,
      "lon": 140.7164,
      "altitude": 811,
      "points": 4,
      "activations": 0,
      "bonus": 0
    },
    {
      "ref": "JA/AT-057",
      "name": "Takamori",
      "nameEn": "Takamori",
      "lat": 39.8093,
      "lon": 140.6347,
      "altitude": 796,
      "points": 4,
      "activations": 0,
      "bonus": 0
    },
    {
      "ref": "JA/AT-058",
      "name": "Oohinatayama",
      "nameEn": "Oohinatayama",
      "lat": 39.209,
      "lon": 140.6657,
      "altitude": 780,
      "points": 4,
      "activations": 0,
      "bonus": 0
    },
    {
      "ref": "JA/AT-059",
      "name": "Morosukeyama",
      "nameEn": "Morosukeyama",
      "lat": 40.2803,
      "lon": 140.89259,
      "altitude": 780,
      "points": 4,
      "activations": 0,
      "bonus": 0
    },
    {
      "ref": "JA/AT-060",
      "name": "Higashichokaizan",
      "nameEn": "Higashichokaizan",
      "lat": 39.0987,
      "lon": 140.5172,
      "altitude": 777,
      "points": 4,
      "activations": 1,
      "bonus": 0
    },
    {
      "ref": "JA/AT-061",
      "name": "Kuromoriyama",
      "nameEn": "Kuromoriyama",
      "lat": 39.3784,
      "lon": 140.632,
      "altitude": 766,
      "points": 4,
      "activations": 2,
      "bonus": 0
    },
    {
      "ref": "JA/AT-062",
      "name": "Tsubakigawa",
      "nameEn": "Tsubakigawa",
      "lat": 39.1404,
      "lon": 140.687,
      "altitude": 766,
      "points": 4,
      "activations": 0,
      "bonus": 0
    },
    {
      "ref": "JA/AT-063",
      "name": "JA/AT-063",
      "nameEn": "JA/AT-063",
      "lat": 40.3246,
      "lon": 140.8934,
      "altitude": 764,
      "points": 4,
      "activations": 0,
      "bonus": 0
    },
    {
      "ref": "JA/AT-064",
      "name": "Kuromori",
      "nameEn": "Kuromori",
      "lat": 39.8607,
      "lon": 140.64481,
      "altitude": 762,
      "points": 4,
      "activations": 0,
      "bonus": 0
    },
    {
      "ref": "JA/AT-065",
      "name": "Okumiyayama",
      "nameEn": "Okumiyayama",
      "lat": 39.0371,
      "lon": 140.5916,
      "altitude": 762,
      "points": 4,
      "activations": 0,
      "bonus": 0
    },
    {
      "ref": "JA/AT-066",
      "name": "Nishinomori",
      "nameEn": "Nishinomori",
      "lat": 40.361,
      "lon": 140.9738,
      "altitude": 756,
      "points": 4,
      "activations": 0,
      "bonus": 0
    },
    {
      "ref": "JA/AT-067",
      "name": "Innaidake",
      "nameEn": "Innaidake",
      "lat": 39.6935,
      "lon": 140.6356,
      "altitude": 751,
      "points": 4,
      "activations": 1,
      "bonus": 0
    },
    {
      "ref": "JA/AT-068",
      "name": "Okuyama",
      "nameEn": "Okuyama",
      "lat": 39.664,
      "lon": 140.4886,
      "altitude": 751,
      "points": 4,
      "activations": 0,
      "bonus": 0
    },
    {
      "ref": "JA/AT-069",
      "name": "Manaitayama",
      "nameEn": "Manaitayama",
      "lat": 39.8637,
      "lon": 140.2094,
      "altitude": 723,
      "points": 4,
      "activations": 0,
      "bonus": 0
    },
    {
      "ref": "JA/AT-070",
      "name": "Ookurayama",
      "nameEn": "Ookurayama",
      "lat": 40.342,
      "lon": 140.1591,
      "altitude": 722,
      "points": 4,
      "activations": 0,
      "bonus": 0
    },
    {
      "ref": "JA/AT-071",
      "name": "Ookawamae",
      "nameEn": "Ookawamae",
      "lat": 39.6804,
      "lon": 140.4586,
      "altitude": 721,
      "points": 4,
      "activations": 0,
      "bonus": 0
    },
    {
      "ref": "JA/AT-072",
      "name": "Honzan",
      "nameEn": "Honzan",
      "lat": 39.9068,
      "lon": 139.7538,
      "altitude": 715,
      "points": 4,
      "activations": 5,
      "bonus": 0
    },
    {
      "ref": "JA/AT-073",
      "name": "Yashioyama",
      "nameEn": "Yashioyama",
      "lat": 39.2366,
      "lon": 140.22771,
      "altitude": 713,
      "points": 4,
      "activations": 4,
      "bonus": 0
    },
    {
      "ref": "JA/AT-074",
      "name": "Shibamori",
      "nameEn": "Shibamori",
      "lat": 39.9687,
      "lon": 140.4478,
      "altitude": 710,
      "points": 4,
      "activations": 0,
      "bonus": 0
    },
    {
      "ref": "JA/AT-075",
      "name": "Houzukiyama",
      "nameEn": "Houzukiyama",
      "lat": 39.9455,
      "lon": 140.4583,
      "altitude": 706,
      "points": 4,
      "activations": 0,
      "bonus": 0
    },
    {
      "ref": "JA/AT-076",
      "name": "Oomoriyama",
      "nameEn": "Oomoriyama",
      "lat": 39.1019,
      "lon": 140.60451,
      "altitude": 704,
      "points": 4,
      "activations": 0,
      "bonus": 0
    },
    {
      "ref": "JA/AT-077",
      "name": "Aikubo",
      "nameEn": "Aikubo",
      "lat": 40.1521,
      "lon": 140.6964,
      "altitude": 702,
      "points": 4,
      "activations": 0,
      "bonus": 0
    },
    {
      "ref": "JA/AT-078",
      "name": "Marumoriyama",
      "nameEn": "Marumoriyama",
      "lat": 39.0665,
      "lon": 140.55881,
      "altitude": 699,
      "points": 4,
      "activations": 0,
      "bonus": 0
    },
    {
      "ref": "JA/AT-079",
      "name": "Minamisawayama",
      "nameEn": "Minamisawayama",
      "lat": 39.0258,
      "lon": 140.3624,
      "altitude": 697,
      "points": 4,
      "activations": 0,
      "bonus": 0
    },
    {
      "ref": "JA/AT-080",
      "name": "Tsukinokiyama",
      "nameEn": "Tsukinokiyama",
      "lat": 40.3636,
      "lon": 140.51109,
      "altitude": 692,
      "points": 4,
      "activations": 0,
      "bonus": 0
    },
    {
      "ref": "JA/AT-081",
      "name": "JA/AT-081",
      "nameEn": "JA/AT-081",
      "lat": 40.4176,
      "lon": 140.4841,
      "altitude": 682,
      "points": 4,
      "activations": 0,
      "bonus": 0
    },
    {
      "ref": "JA/AT-082",
      "name": "Daisakusawa",
      "nameEn": "Daisakusawa",
      "lat": 39.8346,
      "lon": 140.21359,
      "altitude": 680,
      "points": 4,
      "activations": 0,
      "bonus": 0
    },
    {
      "ref": "JA/AT-083",
      "name": "Oono",
      "nameEn": "Oono",
      "lat": 40.3666,
      "lon": 140.3564,
      "altitude": 669,
      "points": 4,
      "activations": 0,
      "bonus": 0
    },
    {
      "ref": "JA/AT-084",
      "name": "Tonosesan",
      "nameEn": "Tonosesan",
      "lat": 40.3337,
      "lon": 140.43761,
      "altitude": 664,
      "points": 4,
      "activations": 0,
      "bonus": 0
    },
    {
      "ref": "JA/AT-085",
      "name": "Oomori",
      "nameEn": "Oomori",
      "lat": 39.9869,
      "lon": 140.4491,
      "altitude": 651,
      "points": 4,
      "activations": 0,
      "bonus": 0
    },
    {
      "ref": "JA/AT-086",
      "name": "Dosyazawa",
      "nameEn": "Dosyazawa",
      "lat": 40.3967,
      "lon": 140.49229,
      "altitude": 638,
      "points": 2,
      "activations": 0,
      "bonus": 0
    },
    {
      "ref": "JA/AT-087",
      "name": "Ookageyama",
      "nameEn": "Ookageyama",
      "lat": 39.6444,
      "lon": 140.69659,
      "altitude": 637,
      "points": 2,
      "activations": 0,
      "bonus": 0
    },
    {
      "ref": "JA/AT-088",
      "name": "JA/AT-088",
      "nameEn": "JA/AT-088",
      "lat": 39.0997,
      "lon": 140.43291,
      "altitude": 630,
      "points": 2,
      "activations": 0,
      "bonus": 0
    },
    {
      "ref": "JA/AT-089",
      "name": "Kagikakemori",
      "nameEn": "Kagikakemori",
      "lat": 39.8775,
      "lon": 140.4593,
      "altitude": 624,
      "points": 2,
      "activations": 0,
      "bonus": 0
    },
    {
      "ref": "JA/AT-090",
      "name": "Kurosawagashira",
      "nameEn": "Kurosawagashira",
      "lat": 40.1513,
      "lon": 140.74429,
      "altitude": 623,
      "points": 2,
      "activations": 0,
      "bonus": 0
    },
    {
      "ref": "JA/AT-091",
      "name": "Sugitouge",
      "nameEn": "Sugitouge",
      "lat": 39.1274,
      "lon": 140.1741,
      "altitude": 620,
      "points": 2,
      "activations": 0,
      "bonus": 0
    },
    {
      "ref": "JA/AT-092",
      "name": "Nagasawa",
      "nameEn": "Nagasawa",
      "lat": 39.3641,
      "lon": 140.1906,
      "altitude": 614,
      "points": 2,
      "activations": 1,
      "bonus": 0
    },
    {
      "ref": "JA/AT-093",
      "name": "JA/AT-093",
      "nameEn": "JA/AT-093",
      "lat": 39.7826,
      "lon": 140.5706,
      "altitude": 610,
      "points": 2,
      "activations": 0,
      "bonus": 0
    },
    {
      "ref": "JA/AT-094",
      "name": "JA/AT-094",
      "nameEn": "JA/AT-094",
      "lat": 39.158,
      "lon": 140.2805,
      "altitude": 604,
      "points": 2,
      "activations": 0,
      "bonus": 0
    },
    {
      "ref": "JA/AT-095",
      "name": "Karasumori",
      "nameEn": "Karasumori",
      "lat": 39.9271,
      "lon": 140.29269,
      "altitude": 601,
      "points": 2,
      "activations": 0,
      "bonus": 0
    },
    {
      "ref": "JA/AT-096",
      "name": "Takamori",
      "nameEn": "Takamori",
      "lat": 40.2565,
      "lon": 140.64639,
      "altitude": 593,
      "points": 2,
      "activations": 0,
      "bonus": 0
    },
    {
      "ref": "JA/AT-097",
      "name": "Menkurasan",
      "nameEn": "Menkurasan",
      "lat": 40.3589,
      "lon": 140.64481,
      "altitude": 590,
      "points": 2,
      "activations": 0,
      "bonus": 0
    },
    {
      "ref": "JA/AT-098",
      "name": "Higashimatayama",
      "nameEn": "Higashimatayama",
      "lat": 40.3798,
      "lon": 140.6703,
      "altitude": 586,
      "points": 2,
      "activations": 0,
      "bonus": 0
    },
    {
      "ref": "JA/AT-099",
      "name": "Nise",
      "nameEn": "Nise",
      "lat": 39.7261,
      "lon": 140.6185,
      "altitude": 585,
      "points": 2,
      "activations": 1,
      "bonus": 0
    },
    {
      "ref": "JA/AT-100",
      "name": "JA/AT-100",
      "nameEn": "JA/AT-100",
      "lat": 39.9403,
      "lon": 140.4328,
      "altitude": 570,
      "points": 2,
      "activations": 0,
      "bonus": 0
    },
    {
      "ref": "JA/AT-101",
      "name": "JA/AT-101",
      "nameEn": "JA/AT-101",
      "lat": 40.1742,
      "lon": 140.6678,
      "altitude": 566,
      "points": 2,
      "activations": 0,
      "bonus": 0
    },
    {
      "ref": "JA/AT-102",
      "name": "Kokageyama",
      "nameEn": "Kokageyama",
      "lat": 39.6171,
      "lon": 140.6647,
      "altitude": 557,
      "points": 2,
      "activations": 0,
      "bonus": 0
    },
    {
      "ref": "JA/AT-103",
      "name": "JA/AT-103",
      "nameEn": "JA/AT-103",
      "lat": 40.2716,
      "lon": 140.66409,
      "altitude": 556,
      "points": 2,
      "activations": 0,
      "bonus": 0
    },
    {
      "ref": "JA/AT-104",
      "name": "Kuromoriyama",
      "nameEn": "Kuromoriyama",
      "lat": 40.3163,
      "lon": 140.81841,
      "altitude": 546,
      "points": 2,
      "activations": 0,
      "bonus": 0
    },
    {
      "ref": "JA/AT-105",
      "name": "JA/AT-105",
      "nameEn": "JA/AT-105",
      "lat": 40.3852,
      "lon": 140.5006,
      "altitude": 542,
      "points": 2,
      "activations": 0,
      "bonus": 0
    },
    {
      "ref": "JA/AT-106",
      "name": "Takazawa",
      "nameEn": "Takazawa",
      "lat": 39.7119,
      "lon": 140.57249,
      "altitude": 537,
      "points": 2,
      "activations": 0,
      "bonus": 0
    },
    {
      "ref": "JA/AT-107",
      "name": "Hououzan",
      "nameEn": "Hououzan",
      "lat": 40.2765,
      "lon": 140.62131,
      "altitude": 521,
      "points": 2,
      "activations": 2,
      "bonus": 0
    },
    {
      "ref": "JA/AT-108",
      "name": "Komatsuzakiyama",
      "nameEn": "Komatsuzakiyama",
      "lat": 40.3229,
      "lon": 140.1442,
      "altitude": 520,
      "points": 2,
      "activations": 0,
      "bonus": 0
    },
    {
      "ref": "JA/AT-109",
      "name": "Nagasetateyama",
      "nameEn": "Nagasetateyama",
      "lat": 39.1756,
      "lon": 140.6055,
      "altitude": 497,
      "points": 1,
      "activations": 0,
      "bonus": 0
    },
    {
      "ref": "JA/AT-110",
      "name": "Sanbonyariyama",
      "nameEn": "Sanbonyariyama",
      "lat": 39.1384,
      "lon": 140.52541,
      "altitude": 496,
      "points": 1,
      "activations": 0,
      "bonus": 0
    },
    {
      "ref": "JA/AT-111",
      "name": "Kuromoriyama",
      "nameEn": "Kuromoriyama",
      "lat": 40.1171,
      "lon": 140.474,
      "altitude": 490,
      "points": 1,
      "activations": 0,
      "bonus": 0
    },
    {
      "ref": "JA/AT-112",
      "name": "Takamori",
      "nameEn": "Takamori",
      "lat": 40.3216,
      "lon": 140.7076,
      "altitude": 482,
      "points": 1,
      "activations": 0,
      "bonus": 0
    },
    {
      "ref": "JA/AT-113",
      "name": "Eboshiyama",
      "nameEn": "Eboshiyama",
      "lat": 39.2267,
      "lon": 140.5891,
      "altitude": 479,
      "points": 1,
      "activations": 1,
      "bonus": 0
    },
    {
      "ref": "JA/AT-114",
      "name": "Oohirayama",
      "nameEn": "Oohirayama",
      "lat": 39.208,
      "lon": 140.3524,
      "altitude": 474,
      "points": 1,
      "activations": 1,
      "bonus": 0
    },
    {
      "ref": "JA/AT-115",
      "name": "Metonoseyama",
      "nameEn": "Metonoseyama",
      "lat": 40.3594,
      "lon": 140.4473,
      "altitude": 467,
      "points": 1,
      "activations": 0,
      "bonus": 0
    },
    {
      "ref": "JA/AT-116",
      "name": "Suwayama",
      "nameEn": "Suwayama",
      "lat": 39.5984,
      "lon": 140.4751,
      "altitude": 456,
      "points": 1,
      "activations": 0,
      "bonus": 0
    },
    {
      "ref": "JA/AT-117",
      "name": "Moyayama",
      "nameEn": "Moyayama",
      "lat": 40.3282,
      "lon": 140.24409,
      "altitude": 450,
      "points": 1,
      "activations": 0,
      "bonus": 0
    },
    {
      "ref": "JA/AT-118",
      "name": "Matouyama",
      "nameEn": "Matouyama",
      "lat": 40.2208,
      "lon": 140.47079,
      "altitude": 444,
      "points": 1,
      "activations": 0,
      "bonus": 0
    },
    {
      "ref": "JA/AT-119",
      "name": "Nibuna",
      "nameEn": "Nibuna",
      "lat": 40.1426,
      "lon": 140.2496,
      "altitude": 443,
      "points": 1,
      "activations": 0,
      "bonus": 0
    },
    {
      "ref": "JA/AT-120",
      "name": "Asadayama",
      "nameEn": "Asadayama",
      "lat": 39.3264,
      "lon": 140.31441,
      "altitude": 442,
      "points": 1,
      "activations": 1,
      "bonus": 0
    },
    {
      "ref": "JA/AT-121",
      "name": "Horowasan",
      "nameEn": "Horowasan",
      "lat": 39.3718,
      "lon": 140.3087,
      "altitude": 438,
      "points": 1,
      "activations": 3,
      "bonus": 0
    },
    {
      "ref": "JA/AT-122",
      "name": "Kayakariyama",
      "nameEn": "Kayakariyama",
      "lat": 40.3312,
      "lon": 140.5162,
      "altitude": 428,
      "points": 1,
      "activations": 0,
      "bonus": 0
    },
    {
      "ref": "JA/AT-123",
      "name": "Oohirayakushi",
      "nameEn": "Oohirayakushi",
      "lat": 39.5365,
      "lon": 140.18761,
      "altitude": 424,
      "points": 1,
      "activations": 3,
      "bonus": 0
    },
    {
      "ref": "JA/AT-124",
      "name": "Mitsumoriyama",
      "nameEn": "Mitsumoriyama",
      "lat": 39.2969,
      "lon": 140.3553,
      "altitude": 412,
      "points": 1,
      "activations": 1,
      "bonus": 0
    },
    {
      "ref": "JA/AT-125",
      "name": "Warisawamori",
      "nameEn": "Warisawamori",
      "lat": 40.1504,
      "lon": 140.4859,
      "altitude": 411,
      "points": 1,
      "activations": 0,
      "bonus": 0
    },
    {
      "ref": "JA/AT-126",
      "name": "Boujyuzan",
      "nameEn": "Boujyuzan",
      "lat": 40.0527,
      "lon": 140.2254,
      "altitude": 410,
      "points": 1,
      "activations": 1,
      "bonus": 0
    },
    {
      "ref": "JA/AT-127",
      "name": "Ipponsugi",
      "nameEn": "Ipponsugi",
      "lat": 39.2707,
      "lon": 140.5905,
      "altitude": 402,
      "points": 1,
      "activations": 0,
      "bonus": 0
    },
    {
      "ref": "JA/AT-128",
      "name": "Oomoriyama",
      "nameEn": "Oomoriyama",
      "lat": 40.0878,
      "lon": 140.3757,
      "altitude": 401,
      "points": 1,
      "activations": 0,
      "bonus": 0
    },
    {
      "ref": "JA/AT-129",
      "name": "Akakurayama",
      "nameEn": "Akakurayama",
      "lat": 39.992,
      "lon": 140.2206,
      "altitude": 398,
      "points": 1,
      "activations": 0,
      "bonus": 0
    },
    {
      "ref": "JA/AT-130",
      "name": "Yakushiyama",
      "nameEn": "Yakushiyama",
      "lat": 39.9252,
      "lon": 140.1973,
      "altitude": 395,
      "points": 1,
      "activations": 1,
      "bonus": 0
    },
    {
      "ref": "JA/AT-131",
      "name": "Santetsusan",
      "nameEn": "Santetsusan",
      "lat": 40.2203,
      "lon": 140.69209,
      "altitude": 394,
      "points": 1,
      "activations": 1,
      "bonus": 0
    },
    {
      "ref": "JA/AT-132",
      "name": "Nakayama",
      "nameEn": "Nakayama",
      "lat": 40.1669,
      "lon": 140.6299,
      "altitude": 392,
      "points": 1,
      "activations": 0,
      "bonus": 0
    },
    {
      "ref": "JA/AT-133",
      "name": "Oohirayama",
      "nameEn": "Oohirayama",
      "lat": 39.4673,
      "lon": 140.4339,
      "altitude": 387,
      "points": 1,
      "activations": 1,
      "bonus": 0
    },
    {
      "ref": "JA/AT-134",
      "name": "Magotarou",
      "nameEn": "Magotarou",
      "lat": 39.5033,
      "lon": 140.1498,
      "altitude": 359,
      "points": 1,
      "activations": 0,
      "bonus": 0
    },
    {
      "ref": "JA/AT-135",
      "name": "Kanpuuzan",
      "nameEn": "Kanpuuzan",
      "lat": 39.9337,
      "lon": 139.87531,
      "altitude": 355,
      "points": 1,
      "activations": 23,
      "bonus": 0
    },
    {
      "ref": "JA/AT-136",
      "name": "Numazawayama",
      "nameEn": "Numazawayama",
      "lat": 39.6013,
      "lon": 140.38271,
      "altitude": 346,
      "points": 1,
      "activations": 0,
      "bonus": 0
    },
    {
      "ref": "JA/AT-137",
      "name": "Shogunzan",
      "nameEn": "Shogunzan",
      "lat": 39.386,
      "lon": 140.383,
      "altitude": 339,
      "points": 1,
      "activations": 1,
      "bonus": 0
    },
    {
      "ref": "JA/AT-138",
      "name": "Oosawa",
      "nameEn": "Oosawa",
      "lat": 40.2434,
      "lon": 140.2773,
      "altitude": 334,
      "points": 1,
      "activations": 0,
      "bonus": 0
    },
    {
      "ref": "JA/AT-139",
      "name": "Moriyama",
      "nameEn": "Moriyama",
      "lat": 39.96,
      "lon": 140.1096,
      "altitude": 326,
      "points": 1,
      "activations": 1,
      "bonus": 0
    },
    {
      "ref": "JA/AT-140",
      "name": "Kannondake",
      "nameEn": "Kannondake",
      "lat": 39.6378,
      "lon": 140.5257,
      "altitude": 322,
      "points": 1,
      "activations": 1,
      "bonus": 0
    },
    {
      "ref": "JA/AT-141",
      "name": "Futtsukidake",
      "nameEn": "Futtsukidake",
      "lat": 38.9658,
      "lon": 140.6544,
      "altitude": 1221,
      "points": 8,
      "activations": 0,
      "bonus": 3
    },
    {
      "ref": "JA/AT-142",
      "name": "Kanaikemori",
      "nameEn": "Kanaikemori",
      "lat": 39.8669,
      "lon": 140.4095,
      "altitude": 967,
      "points": 6,
      "activations": 0,
      "bonus": 0
    },
    {
      "ref": "JA/AT-143",
      "name": "Usugadake",
      "nameEn": "Usugadake",
      "lat": 38.9331,
      "lon": 140.703,
      "altitude": 958,
      "points": 6,
      "activations": 0,
      "bonus": 0
    },
    {
      "ref": "JA/AT-144",
      "name": "Yuse",
      "nameEn": "Yuse",
      "lat": 40.091,
      "lon": 140.8551,
      "altitude": 917,
      "points": 6,
      "activations": 0,
      "bonus": 0
    },
    {
      "ref": "JA/AT-145",
      "name": "Toushiromori",
      "nameEn": "Toushiromori",
      "lat": 39.7308,
      "lon": 140.46201,
      "altitude": 905,
      "points": 6,
      "activations": 0,
      "bonus": 0
    },
    {
      "ref": "JA/AT-146",
      "name": "Boukui",
      "nameEn": "Boukui",
      "lat": 40.1953,
      "lon": 140.8537,
      "altitude": 895,
      "points": 6,
      "activations": 1,
      "bonus": 0
    },
    {
      "ref": "JA/AT-147",
      "name": "Takashibamori",
      "nameEn": "Takashibamori",
      "lat": 39.8944,
      "lon": 140.573,
      "altitude": 870,
      "points": 6,
      "activations": 0,
      "bonus": 0
    },
    {
      "ref": "JA/AT-148",
      "name": "Nokura",
      "nameEn": "Nokura",
      "lat": 39.9062,
      "lon": 140.5638,
      "altitude": 797,
      "points": 4,
      "activations": 0,
      "bonus": 0
    },
    {
      "ref": "JA/AT-149",
      "name": "Sauchidake",
      "nameEn": "Sauchidake",
      "lat": 39.9277,
      "lon": 140.3421,
      "altitude": 797,
      "points": 4,
      "activations": 0,
      "bonus": 0
    },
    {
      "ref": "JA/AT-150",
      "name": "Makigaimori",
      "nameEn": "Makigaimori",
      "lat": 39.7848,
      "lon": 140.519,
      "altitude": 784,
      "points": 4,
      "activations": 0,
      "bonus": 0
    },
    {
      "ref": "JA/AT-151",
      "name": "JA/AT-151",
      "nameEn": "JA/AT-151",
      "lat": 39.8812,
      "lon": 140.4272,
      "altitude": 778,
      "points": 4,
      "activations": 0,
      "bonus": 0
    },
    {
      "ref": "JA/AT-152",
      "name": "Akakuramori",
      "nameEn": "Akakuramori",
      "lat": 39.8514,
      "lon": 140.504,
      "altitude": 772,
      "points": 4,
      "activations": 0,
      "bonus": 0
    },
    {
      "ref": "JA/AT-153",
      "name": "Nangoudake",
      "nameEn": "Nangoudake",
      "lat": 39.2334,
      "lon": 140.67349,
      "altitude": 681,
      "points": 4,
      "activations": 0,
      "bonus": 0
    },
    {
      "ref": "JA/AT-154",
      "name": "Himegatake",
      "nameEn": "Himegatake",
      "lat": 40.0002,
      "lon": 140.3721,
      "altitude": 651,
      "points": 4,
      "activations": 1,
      "bonus": 0
    },
    {
      "ref": "JA/AT-155",
      "name": "Hahoyasan",
      "nameEn": "Hahoyasan",
      "lat": 40.3404,
      "lon": 140.6752,
      "altitude": 593,
      "points": 2,
      "activations": 1,
      "bonus": 0
    },
    {
      "ref": "JA/AT-156",
      "name": "Near Nakayama",
      "nameEn": "Near Nakayama",
      "lat": 39.6824,
      "lon": 140.6739,
      "altitude": 586,
      "points": 2,
      "activations": 0,
      "bonus": 0
    },
    {
      "ref": "JA/AT-157",
      "name": "Ishikurayama",
      "nameEn": "Ishikurayama",
      "lat": 40.0814,
      "lon": 140.50281,
      "altitude": 571,
      "points": 2,
      "activations": 0,
      "bonus": 0
    },
    {
      "ref": "JA/AT-158",
      "name": "Ichinosawa",
      "nameEn": "Ichinosawa",
      "lat": 39.7423,
      "lon": 140.3604,
      "altitude": 532,
      "points": 2,
      "activations": 0,
      "bonus": 0
    },
    {
      "ref": "JA/AT-159",
      "name": "Ooanatouge",
      "nameEn": "Ooanatouge",
      "lat": 39.2721,
      "lon": 140.679,
      "altitude": 483,
      "points": 1,
      "activations": 0,
      "bonus": 0
    },
    {
      "ref": "JA/AT-160",
      "name": "Near Oohirayama",
      "nameEn": "Near Oohirayama",
      "lat": 39.2037,
      "lon": 140.3488,
      "altitude": 481,
      "points": 1,
      "activations": 2,
      "bonus": 0
    },
    {
      "ref": "JA/AT-161",
      "name": "JA/AT-161",
      "nameEn": "JA/AT-161",
      "lat": 39.8954,
      "lon": 140.22569,
      "altitude": 436,
      "points": 1,
      "activations": 0,
      "bonus": 0
    },
    {
      "ref": "JA/AT-162",
      "name": "Higureyama",
      "nameEn": "Higureyama",
      "lat": 40.2796,
      "lon": 140.7189,
      "altitude": 424,
      "points": 1,
      "activations": 0,
      "bonus": 0
    },
    {
      "ref": "JA/AT-163",
      "name": "Tenjikumori",
      "nameEn": "Tenjikumori",
      "lat": 39.2743,
      "lon": 140.6405,
      "altitude": 367,
      "points": 1,
      "activations": 0,
      "bonus": 0
    },
    {
      "ref": "JA/AT-164",
      "name": "Iwayayama",
      "nameEn": "Iwayayama",
      "lat": 39.7426,
      "lon": 140.32671,
      "altitude": 366,
      "points": 1,
      "activations": 1,
      "bonus": 0
    },
    {
      "ref": "JA/AT-165",
      "name": "JA/AT-165",
      "nameEn": "JA/AT-165",
      "lat": 39.484,
      "lon": 140.1423,
      "altitude": 365,
      "points": 1,
      "activations": 1,
      "bonus": 0
    },
    {
      "ref": "JA/AT-166",
      "name": "Kokuzoyama",
      "nameEn": "Kokuzoyama",
      "lat": 39.3288,
      "lon": 140.15891,
      "altitude": 358,
      "points": 1,
      "activations": 2,
      "bonus": 0
    },
    {
      "ref": "JA/AT-167",
      "name": "Chojyamori",
      "nameEn": "Chojyamori",
      "lat": 39.6172,
      "lon": 140.3894,
      "altitude": 323,
      "points": 1,
      "activations": 0,
      "bonus": 0
    },
    {
      "ref": "JA/AT-168",
      "name": "Yonegamori",
      "nameEn": "Yonegamori",
      "lat": 39.6253,
      "lon": 140.36549,
      "altitude": 314,
      "points": 1,
      "activations": 0,
      "bonus": 0
    },
    {
      "ref": "JA/AT-169",
      "name": "Naganoyama",
      "nameEn": "Naganoyama",
      "lat": 39.551,
      "lon": 140.5154,
      "altitude": 292,
      "points": 1,
      "activations": 0,
      "bonus": 0
    },
    {
      "ref": "JA/AT-170",
      "name": "Jingujidake",
      "nameEn": "Jingujidake",
      "lat": 39.4804,
      "lon": 140.4364,
      "altitude": 277,
      "points": 1,
      "activations": 1,
      "bonus": 0
    },
    {
      "ref": "JA/AT-171",
      "name": "Oohirayama",
      "nameEn": "Oohirayama",
      "lat": 39.572,
      "lon": 140.3781,
      "altitude": 273,
      "points": 1,
      "activations": 1,
      "bonus": 0
    },
    {
      "ref": "JA/AT-172",
      "name": "JA/AT-172",
      "nameEn": "JA/AT-172",
      "lat": 39.541,
      "lon": 140.4846,
      "altitude": 248,
      "points": 1,
      "activations": 0,
      "bonus": 0
    },
    {
      "ref": "JA/CB-001",
      "name": "Atagoyama",
      "nameEn": "Atagoyama",
      "lat": 35.1149,
      "lon": 139.9868,
      "altitude": 408,
      "points": 1,
      "activations": 9,
      "bonus": 0
    },
    {
      "ref": "JA/CB-002",
      "name": "Kanouzan (Shiratorimine)",
      "nameEn": "Kanouzan (Shiratorimine)",
      "lat": 35.2556,
      "lon": 139.97189,
      "altitude": 379,
      "points": 1,
      "activations": 48,
      "bonus": 0
    },
    {
      "ref": "JA/CB-003",
      "name": "Kiyosumiyama (Myokensan)",
      "nameEn": "Kiyosumiyama (Myokensan)",
      "lat": 35.1623,
      "lon": 140.1523,
      "altitude": 377,
      "points": 1,
      "activations": 22,
      "bonus": 0
    },
    {
      "ref": "JA/CB-004",
      "name": "Gotenyama",
      "nameEn": "Gotenyama",
      "lat": 35.0887,
      "lon": 139.94769,
      "altitude": 364,
      "points": 1,
      "activations": 46,
      "bonus": 0
    },
    {
      "ref": "JA/CB-005",
      "name": "Tomisan",
      "nameEn": "Tomisan",
      "lat": 35.0988,
      "lon": 139.8815,
      "altitude": 350,
      "points": 1,
      "activations": 62,
      "bonus": 0
    },
    {
      "ref": "JA/CB-006",
      "name": "Nokogiriyama",
      "nameEn": "Nokogiriyama",
      "lat": 35.1604,
      "lon": 139.8409,
      "altitude": 330,
      "points": 1,
      "activations": 67,
      "bonus": 0
    },
    {
      "ref": "JA/CB-007",
      "name": "Ueno",
      "nameEn": "Ueno",
      "lat": 35.2629,
      "lon": 140.0246,
      "altitude": 313,
      "points": 1,
      "activations": 16,
      "bonus": 0
    },
    {
      "ref": "JA/CB-008",
      "name": "Awatakayama",
      "nameEn": "Awatakayama",
      "lat": 35.1575,
      "lon": 140.0202,
      "altitude": 365,
      "points": 1,
      "activations": 21,
      "bonus": 0
    },
    {
      "ref": "JA/CB-009",
      "name": "Iyogatake",
      "nameEn": "Iyogatake",
      "lat": 35.1073,
      "lon": 139.914,
      "altitude": 336,
      "points": 1,
      "activations": 43,
      "bonus": 0
    },
    {
      "ref": "JA/CB-010",
      "name": "Goshozukayama",
      "nameEn": "Goshozukayama",
      "lat": 35.3139,
      "lon": 140.1136,
      "altitude": 271,
      "points": 1,
      "activations": 31,
      "bonus": 0
    },
    {
      "ref": "JA/CB-011",
      "name": "Tsubenoyama",
      "nameEn": "Tsubenoyama",
      "lat": 35.1123,
      "lon": 139.8647,
      "altitude": 259,
      "points": 1,
      "activations": 19,
      "bonus": 0
    },
    {
      "ref": "JA/CB-012",
      "name": "Takatsukayama",
      "nameEn": "Takatsukayama",
      "lat": 34.9375,
      "lon": 139.9404,
      "altitude": 216,
      "points": 1,
      "activations": 16,
      "bonus": 0
    },
    {
      "ref": "JA/CB-013",
      "name": "Mineokasengen",
      "nameEn": "Mineokasengen",
      "lat": 35.1094,
      "lon": 140.0184,
      "altitude": 340,
      "points": 1,
      "activations": 24,
      "bonus": 0
    },
    {
      "ref": "JA/FI-001",
      "name": "Akausagiyama",
      "nameEn": "Akausagiyama",
      "lat": 36.0676,
      "lon": 136.6619,
      "altitude": 1629,
      "points": 10,
      "activations": 13,
      "bonus": 3
    },
    {
      "ref": "JA/FI-002",
      "name": "Kyougadake",
      "nameEn": "Kyougadake",
      "lat": 36.0464,
      "lon": 136.6219,
      "altitude": 1625,
      "points": 10,
      "activations": 6,
      "bonus": 3
    },
    {
      "ref": "JA/FI-003",
      "name": "Itoshiro",
      "nameEn": "Itoshiro",
      "lat": 35.9928,
      "lon": 136.7222,
      "altitude": 1609,
      "points": 10,
      "activations": 0,
      "bonus": 3
    },
    {
      "ref": "JA/FI-004",
      "name": "Hachibuseyama",
      "nameEn": "Hachibuseyama",
      "lat": 36.0983,
      "lon": 136.63741,
      "altitude": 1549,
      "points": 10,
      "activations": 3,
      "bonus": 3
    },
    {
      "ref": "JA/FI-005",
      "name": "Arashimadake",
      "nameEn": "Arashimadake",
      "lat": 35.9343,
      "lon": 136.6013,
      "altitude": 1523,
      "points": 10,
      "activations": 27,
      "bonus": 3
    },
    {
      "ref": "JA/FI-006",
      "name": "Hekosan",
      "nameEn": "Hekosan",
      "lat": 35.8861,
      "lon": 136.43919,
      "altitude": 1464,
      "points": 8,
      "activations": 22,
      "bonus": 3
    },
    {
      "ref": "JA/FI-007",
      "name": "Ubagatake",
      "nameEn": "Ubagatake",
      "lat": 35.8095,
      "lon": 136.50591,
      "altitude": 1454,
      "points": 8,
      "activations": 6,
      "bonus": 3
    },
    {
      "ref": "JA/FI-008",
      "name": "Heikegadake",
      "nameEn": "Heikegadake",
      "lat": 35.8099,
      "lon": 136.7189,
      "altitude": 1442,
      "points": 8,
      "activations": 1,
      "bonus": 3
    },
    {
      "ref": "JA/FI-009",
      "name": "Genanpo",
      "nameEn": "Genanpo",
      "lat": 35.8866,
      "lon": 136.4649,
      "altitude": 1441,
      "points": 8,
      "activations": 9,
      "bonus": 3
    },
    {
      "ref": "JA/FI-010",
      "name": "Asahimaezaka",
      "nameEn": "Asahimaezaka",
      "lat": 35.9569,
      "lon": 136.6685,
      "altitude": 1328,
      "points": 8,
      "activations": 0,
      "bonus": 3
    },
    {
      "ref": "JA/FI-011",
      "name": "Yarigahara",
      "nameEn": "Yarigahara",
      "lat": 35.9032,
      "lon": 136.58681,
      "altitude": 1317,
      "points": 8,
      "activations": 0,
      "bonus": 3
    },
    {
      "ref": "JA/FI-012",
      "name": "Oise",
      "nameEn": "Oise",
      "lat": 35.8472,
      "lon": 136.62531,
      "altitude": 1286,
      "points": 8,
      "activations": 0,
      "bonus": 3
    },
    {
      "ref": "JA/FI-013",
      "name": "Sugitani",
      "nameEn": "Sugitani",
      "lat": 35.7768,
      "lon": 136.48511,
      "altitude": 1282,
      "points": 8,
      "activations": 0,
      "bonus": 3
    },
    {
      "ref": "JA/FI-014",
      "name": "JA/FI-014",
      "nameEn": "JA/FI-014",
      "lat": 35.8908,
      "lon": 136.8111,
      "altitude": 1270,
      "points": 8,
      "activations": 0,
      "bonus": 3
    },
    {
      "ref": "JA/FI-015",
      "name": "Omouyakami",
      "nameEn": "Omouyakami",
      "lat": 35.8394,
      "lon": 136.74631,
      "altitude": 1246,
      "points": 8,
      "activations": 0,
      "bonus": 3
    },
    {
      "ref": "JA/FI-016",
      "name": "Horagadaira",
      "nameEn": "Horagadaira",
      "lat": 35.8498,
      "lon": 136.43649,
      "altitude": 1218,
      "points": 8,
      "activations": 0,
      "bonus": 3
    },
    {
      "ref": "JA/FI-017",
      "name": "Dougatsujiyama",
      "nameEn": "Dougatsujiyama",
      "lat": 35.8664,
      "lon": 136.5657,
      "altitude": 1205,
      "points": 8,
      "activations": 0,
      "bonus": 3
    },
    {
      "ref": "JA/FI-018",
      "name": "Shimohige",
      "nameEn": "Shimohige",
      "lat": 35.8168,
      "lon": 136.60201,
      "altitude": 1201,
      "points": 8,
      "activations": 0,
      "bonus": 3
    },
    {
      "ref": "JA/FI-019",
      "name": "Higashiichinuno",
      "nameEn": "Higashiichinuno",
      "lat": 35.8536,
      "lon": 136.7995,
      "altitude": 1193,
      "points": 8,
      "activations": 0,
      "bonus": 3
    },
    {
      "ref": "JA/FI-020",
      "name": "Himoyamata",
      "nameEn": "Himoyamata",
      "lat": 35.8656,
      "lon": 136.65269,
      "altitude": 1190,
      "points": 8,
      "activations": 0,
      "bonus": 3
    },
    {
      "ref": "JA/FI-021",
      "name": "Dousaisan",
      "nameEn": "Dousaisan",
      "lat": 35.8784,
      "lon": 136.53661,
      "altitude": 1188,
      "points": 8,
      "activations": 0,
      "bonus": 3
    },
    {
      "ref": "JA/FI-022",
      "name": "JA/FI-022",
      "nameEn": "JA/FI-022",
      "lat": 35.8214,
      "lon": 136.6301,
      "altitude": 1180,
      "points": 8,
      "activations": 0,
      "bonus": 3
    },
    {
      "ref": "JA/FI-023",
      "name": "Ootani1",
      "nameEn": "Ootani1",
      "lat": 35.897,
      "lon": 136.7298,
      "altitude": 1161,
      "points": 8,
      "activations": 0,
      "bonus": 3
    },
    {
      "ref": "JA/FI-024",
      "name": "JA/FI-024",
      "nameEn": "JA/FI-024",
      "lat": 36.1311,
      "lon": 136.4156,
      "altitude": 1091,
      "points": 6,
      "activations": 0,
      "bonus": 0
    },
    {
      "ref": "JA/FI-025",
      "name": "Washikuradake",
      "nameEn": "Washikuradake",
      "lat": 35.8905,
      "lon": 136.66701,
      "altitude": 1010,
      "points": 6,
      "activations": 1,
      "bonus": 0
    },
    {
      "ref": "JA/FI-026",
      "name": "Oomikageyama",
      "nameEn": "Oomikageyama",
      "lat": 35.5005,
      "lon": 135.97211,
      "altitude": 950,
      "points": 6,
      "activations": 4,
      "bonus": 0
    },
    {
      "ref": "JA/FI-027",
      "name": "Amagaya",
      "nameEn": "Amagaya",
      "lat": 35.8406,
      "lon": 136.53481,
      "altitude": 929,
      "points": 6,
      "activations": 0,
      "bonus": 0
    },
    {
      "ref": "JA/FI-028",
      "name": "Nosakadake",
      "nameEn": "Nosakadake",
      "lat": 35.5897,
      "lon": 136.02451,
      "altitude": 913,
      "points": 6,
      "activations": 20,
      "bonus": 0
    },
    {
      "ref": "JA/FI-029",
      "name": "Ogurataniyama",
      "nameEn": "Ogurataniyama",
      "lat": 36.166,
      "lon": 136.36571,
      "altitude": 911,
      "points": 6,
      "activations": 3,
      "bonus": 0
    },
    {
      "ref": "JA/FI-030",
      "name": "Iifuriyama",
      "nameEn": "Iifuriyama",
      "lat": 35.9669,
      "lon": 136.4572,
      "altitude": 884,
      "points": 6,
      "activations": 3,
      "bonus": 0
    },
    {
      "ref": "JA/FI-031",
      "name": "Ashitaniyama",
      "nameEn": "Ashitaniyama",
      "lat": 35.5638,
      "lon": 136.0253,
      "altitude": 866,
      "points": 6,
      "activations": 1,
      "bonus": 0
    },
    {
      "ref": "JA/FI-032",
      "name": "Sennooyama",
      "nameEn": "Sennooyama",
      "lat": 36.047,
      "lon": 136.39461,
      "altitude": 826,
      "points": 4,
      "activations": 3,
      "bonus": 0
    },
    {
      "ref": "JA/FI-033",
      "name": "Hachigamine",
      "nameEn": "Hachigamine",
      "lat": 35.3572,
      "lon": 135.668,
      "altitude": 800,
      "points": 4,
      "activations": 6,
      "bonus": 0
    },
    {
      "ref": "JA/FI-034",
      "name": "Hinosan",
      "nameEn": "Hinosan",
      "lat": 35.8592,
      "lon": 136.2074,
      "altitude": 794,
      "points": 4,
      "activations": 9,
      "bonus": 0
    },
    {
      "ref": "JA/FI-035",
      "name": "JA/FI-035",
      "nameEn": "JA/FI-035",
      "lat": 35.5522,
      "lon": 135.9451,
      "altitude": 789,
      "points": 4,
      "activations": 1,
      "bonus": 0
    },
    {
      "ref": "JA/FI-036",
      "name": "JA/FI-036",
      "nameEn": "JA/FI-036",
      "lat": 35.8238,
      "lon": 136.2729,
      "altitude": 775,
      "points": 4,
      "activations": 0,
      "bonus": 0
    },
    {
      "ref": "JA/FI-037",
      "name": "HotaKyogatake",
      "nameEn": "HotaKyogatake",
      "lat": 36.0502,
      "lon": 136.4357,
      "altitude": 765,
      "points": 4,
      "activations": 2,
      "bonus": 0
    },
    {
      "ref": "JA/FI-038",
      "name": "Saifougatake",
      "nameEn": "Saifougatake",
      "lat": 35.7099,
      "lon": 136.01019,
      "altitude": 764,
      "points": 4,
      "activations": 4,
      "bonus": 0
    },
    {
      "ref": "JA/FI-039",
      "name": "JA/FI-039",
      "nameEn": "JA/FI-039",
      "lat": 35.7614,
      "lon": 136.2516,
      "altitude": 762,
      "points": 4,
      "activations": 0,
      "bonus": 0
    },
    {
      "ref": "JA/FI-040",
      "name": "Hachibuseyama",
      "nameEn": "Hachibuseyama",
      "lat": 35.7213,
      "lon": 136.134,
      "altitude": 762,
      "points": 4,
      "activations": 9,
      "bonus": 0
    },
    {
      "ref": "JA/FI-041",
      "name": "Takatsumuriyama",
      "nameEn": "Takatsumuriyama",
      "lat": 35.7946,
      "lon": 136.1489,
      "altitude": 746,
      "points": 4,
      "activations": 5,
      "bonus": 0
    },
    {
      "ref": "JA/FI-042",
      "name": "Ichijyosan",
      "nameEn": "Ichijyosan",
      "lat": 35.9739,
      "lon": 136.33299,
      "altitude": 741,
      "points": 4,
      "activations": 5,
      "bonus": 0
    },
    {
      "ref": "JA/FI-043",
      "name": "Karakidake",
      "nameEn": "Karakidake",
      "lat": 35.8572,
      "lon": 136.2726,
      "altitude": 738,
      "points": 4,
      "activations": 1,
      "bonus": 0
    },
    {
      "ref": "JA/FI-044",
      "name": "JA/FI-044",
      "nameEn": "JA/FI-044",
      "lat": 35.8239,
      "lon": 136.32539,
      "altitude": 735,
      "points": 4,
      "activations": 0,
      "bonus": 0
    },
    {
      "ref": "JA/FI-045",
      "name": "Dannodake",
      "nameEn": "Dannodake",
      "lat": 35.8305,
      "lon": 136.3019,
      "altitude": 728,
      "points": 4,
      "activations": 0,
      "bonus": 0
    },
    {
      "ref": "JA/FI-046",
      "name": "Tadagatake",
      "nameEn": "Tadagatake",
      "lat": 35.4511,
      "lon": 135.7626,
      "altitude": 712,
      "points": 4,
      "activations": 2,
      "bonus": 0
    },
    {
      "ref": "JA/FI-047",
      "name": "Yamada",
      "nameEn": "Yamada",
      "lat": 35.9053,
      "lon": 136.3206,
      "altitude": 701,
      "points": 4,
      "activations": 0,
      "bonus": 0
    },
    {
      "ref": "JA/FI-048",
      "name": "Minamihatadake",
      "nameEn": "Minamihatadake",
      "lat": 36.0165,
      "lon": 136.4579,
      "altitude": 700,
      "points": 4,
      "activations": 0,
      "bonus": 0
    },
    {
      "ref": "JA/FI-049",
      "name": "Rokusyosan",
      "nameEn": "Rokusyosan",
      "lat": 35.9878,
      "lon": 136.0088,
      "altitude": 698,
      "points": 4,
      "activations": 6,
      "bonus": 0
    },
    {
      "ref": "JA/FI-050",
      "name": "Aobasan",
      "nameEn": "Aobasan",
      "lat": 35.5052,
      "lon": 135.4838,
      "altitude": 693,
      "points": 4,
      "activations": 10,
      "bonus": 0
    },
    {
      "ref": "JA/FI-051",
      "name": "Kurakakeyama",
      "nameEn": "Kurakakeyama",
      "lat": 35.9995,
      "lon": 136.0047,
      "altitude": 690,
      "points": 4,
      "activations": 2,
      "bonus": 0
    },
    {
      "ref": "JA/FI-052",
      "name": "Shirataki",
      "nameEn": "Shirataki",
      "lat": 35.4077,
      "lon": 135.5697,
      "altitude": 671,
      "points": 4,
      "activations": 0,
      "bonus": 0
    },
    {
      "ref": "JA/FI-053",
      "name": "Okuasoumura",
      "nameEn": "Okuasoumura",
      "lat": 35.5882,
      "lon": 136.1601,
      "altitude": 662,
      "points": 4,
      "activations": 1,
      "bonus": 0
    },
    {
      "ref": "JA/FI-054",
      "name": "Kunimidake",
      "nameEn": "Kunimidake",
      "lat": 36.0793,
      "lon": 136.084,
      "altitude": 656,
      "points": 4,
      "activations": 13,
      "bonus": 0
    },
    {
      "ref": "JA/FI-055",
      "name": "Toishimura",
      "nameEn": "Toishimura",
      "lat": 35.8662,
      "lon": 136.34689,
      "altitude": 652,
      "points": 4,
      "activations": 1,
      "bonus": 0
    },
    {
      "ref": "JA/FI-056",
      "name": "Kusamadake",
      "nameEn": "Kusamadake",
      "lat": 35.9742,
      "lon": 136.3997,
      "altitude": 652,
      "points": 4,
      "activations": 1,
      "bonus": 0
    },
    {
      "ref": "JA/FI-057",
      "name": "Nyogobou",
      "nameEn": "Nyogobou",
      "lat": 35.6397,
      "lon": 136.1337,
      "altitude": 647,
      "points": 2,
      "activations": 1,
      "bonus": 0
    },
    {
      "ref": "JA/FI-058",
      "name": "Konpirasan",
      "nameEn": "Konpirasan",
      "lat": 36.057,
      "lon": 136.05791,
      "altitude": 624,
      "points": 2,
      "activations": 2,
      "bonus": 0
    },
    {
      "ref": "JA/FI-059",
      "name": "Nanatsudake",
      "nameEn": "Nanatsudake",
      "lat": 35.8738,
      "lon": 136.30499,
      "altitude": 620,
      "points": 2,
      "activations": 1,
      "bonus": 0
    },
    {
      "ref": "JA/FI-060",
      "name": "Kusuyagadake",
      "nameEn": "Kusuyagadake",
      "lat": 35.5574,
      "lon": 135.7337,
      "altitude": 619,
      "points": 2,
      "activations": 15,
      "bonus": 0
    },
    {
      "ref": "JA/FI-061",
      "name": "Hanseizan",
      "nameEn": "Hanseizan",
      "lat": 35.4519,
      "lon": 135.6601,
      "altitude": 584,
      "points": 2,
      "activations": 1,
      "bonus": 0
    },
    {
      "ref": "JA/FI-062",
      "name": "Wakasudake",
      "nameEn": "Wakasudake",
      "lat": 35.9027,
      "lon": 136.0256,
      "altitude": 564,
      "points": 2,
      "activations": 6,
      "bonus": 0
    },
    {
      "ref": "JA/FI-063",
      "name": "Otakesan",
      "nameEn": "Otakesan",
      "lat": 35.5985,
      "lon": 135.9747,
      "altitude": 548,
      "points": 2,
      "activations": 4,
      "bonus": 0
    },
    {
      "ref": "JA/FI-064",
      "name": "Yoshinogatake",
      "nameEn": "Yoshinogatake",
      "lat": 36.0509,
      "lon": 136.31641,
      "altitude": 547,
      "points": 2,
      "activations": 12,
      "bonus": 0
    },
    {
      "ref": "JA/FI-065",
      "name": "Onigatake",
      "nameEn": "Onigatake",
      "lat": 35.9001,
      "lon": 136.10091,
      "altitude": 533,
      "points": 2,
      "activations": 7,
      "bonus": 0
    },
    {
      "ref": "JA/FI-066",
      "name": "Miuchiyama",
      "nameEn": "Miuchiyama",
      "lat": 35.6674,
      "lon": 136.0134,
      "altitude": 521,
      "points": 2,
      "activations": 1,
      "bonus": 0
    },
    {
      "ref": "JA/FI-067",
      "name": "JA/FI-067",
      "nameEn": "JA/FI-067",
      "lat": 35.4172,
      "lon": 135.61031,
      "altitude": 520,
      "points": 2,
      "activations": 0,
      "bonus": 0
    },
    {
      "ref": "JA/FI-068",
      "name": "Amasakamura",
      "nameEn": "Amasakamura",
      "lat": 35.5224,
      "lon": 135.832,
      "altitude": 512,
      "points": 2,
      "activations": 2,
      "bonus": 0
    },
    {
      "ref": "JA/FI-069",
      "name": "Somayama",
      "nameEn": "Somayama",
      "lat": 35.8022,
      "lon": 136.2196,
      "altitude": 492,
      "points": 1,
      "activations": 5,
      "bonus": 0
    },
    {
      "ref": "JA/FI-070",
      "name": "Ooyama",
      "nameEn": "Ooyama",
      "lat": 35.5439,
      "lon": 135.4604,
      "altitude": 489,
      "points": 1,
      "activations": 0,
      "bonus": 0
    },
    {
      "ref": "JA/FI-071",
      "name": "Wadayama",
      "nameEn": "Wadayama",
      "lat": 35.5065,
      "lon": 135.6109,
      "altitude": 478,
      "points": 1,
      "activations": 0,
      "bonus": 0
    },
    {
      "ref": "JA/FI-072",
      "name": "Hotokedani",
      "nameEn": "Hotokedani",
      "lat": 35.9942,
      "lon": 136.3988,
      "altitude": 464,
      "points": 1,
      "activations": 0,
      "bonus": 0
    },
    {
      "ref": "JA/FI-073",
      "name": "Kagamiyama",
      "nameEn": "Kagamiyama",
      "lat": 35.5351,
      "lon": 135.8643,
      "altitude": 451,
      "points": 1,
      "activations": 1,
      "bonus": 0
    },
    {
      "ref": "JA/FI-074",
      "name": "Terayama",
      "nameEn": "Terayama",
      "lat": 35.6671,
      "lon": 135.9875,
      "altitude": 418,
      "points": 1,
      "activations": 1,
      "bonus": 0
    },
    {
      "ref": "JA/FI-075",
      "name": "Amagozeyama",
      "nameEn": "Amagozeyama",
      "lat": 35.808,
      "lon": 136.0872,
      "altitude": 400,
      "points": 1,
      "activations": 2,
      "bonus": 0
    },
    {
      "ref": "JA/FI-076",
      "name": "Baijyodake",
      "nameEn": "Baijyodake",
      "lat": 35.6012,
      "lon": 135.86861,
      "altitude": 400,
      "points": 1,
      "activations": 6,
      "bonus": 0
    },
    {
      "ref": "JA/FI-077",
      "name": "Tai",
      "nameEn": "Tai",
      "lat": 35.6838,
      "lon": 136.10381,
      "altitude": 360,
      "points": 1,
      "activations": 0,
      "bonus": 0
    },
    {
      "ref": "JA/FI-078",
      "name": "Konpirayama",
      "nameEn": "Konpirayama",
      "lat": 36.0149,
      "lon": 136.0784,
      "altitude": 347,
      "points": 1,
      "activations": 2,
      "bonus": 0
    },
    {
      "ref": "JA/FI-079",
      "name": "Sanriyama",
      "nameEn": "Sanriyama",
      "lat": 35.9384,
      "lon": 136.2256,
      "altitude": 346,
      "points": 1,
      "activations": 6,
      "bonus": 0
    },
    {
      "ref": "JA/FI-080",
      "name": "JA/FI-080",
      "nameEn": "JA/FI-080",
      "lat": 35.5446,
      "lon": 135.5116,
      "altitude": 340,
      "points": 1,
      "activations": 0,
      "bonus": 0
    },
    {
      "ref": "JA/FI-081",
      "name": "Tennouzan",
      "nameEn": "Tennouzan",
      "lat": 35.6208,
      "lon": 135.9525,
      "altitude": 331,
      "points": 1,
      "activations": 1,
      "bonus": 0
    },
    {
      "ref": "JA/FI-082",
      "name": "JA/FI-082",
      "nameEn": "JA/FI-082",
      "lat": 35.7235,
      "lon": 135.96609,
      "altitude": 308,
      "points": 1,
      "activations": 0,
      "bonus": 0
    },
    {
      "ref": "JA/FI-083",
      "name": "Ootani",
      "nameEn": "Ootani",
      "lat": 35.9986,
      "lon": 136.2836,
      "altitude": 297,
      "points": 1,
      "activations": 0,
      "bonus": 0
    },
    {
      "ref": "JA/FI-084",
      "name": "Ossakayama",
      "nameEn": "Ossakayama",
      "lat": 35.9967,
      "lon": 136.1353,
      "altitude": 290,
      "points": 1,
      "activations": 4,
      "bonus": 0
    },
    {
      "ref": "JA/FI-085",
      "name": "Mitokoyama",
      "nameEn": "Mitokoyama",
      "lat": 35.9488,
      "lon": 136.12939,
      "altitude": 280,
      "points": 1,
      "activations": 9,
      "bonus": 0
    },
    {
      "ref": "JA/FI-086",
      "name": "Near Karasugatake",
      "nameEn": "Near Karasugatake",
      "lat": 35.9788,
      "lon": 136.09599,
      "altitude": 270,
      "points": 1,
      "activations": 2,
      "bonus": 0
    },
    {
      "ref": "JA/FI-087",
      "name": "Takenoya",
      "nameEn": "Takenoya",
      "lat": 35.8374,
      "lon": 136.4234,
      "altitude": 1182,
      "points": 8,
      "activations": 0,
      "bonus": 3
    },
    {
      "ref": "JA/FI-088",
      "name": "Suhara",
      "nameEn": "Suhara",
      "lat": 35.8511,
      "lon": 136.4892,
      "altitude": 1143,
      "points": 8,
      "activations": 0,
      "bonus": 3
    },
    {
      "ref": "JA/FI-089",
      "name": "Near Oobayashi",
      "nameEn": "Near Oobayashi",
      "lat": 35.9829,
      "lon": 136.6187,
      "altitude": 1000,
      "points": 6,
      "activations": 0,
      "bonus": 0
    },
    {
      "ref": "JA/FI-090",
      "name": "JA/FI-090",
      "nameEn": "JA/FI-090",
      "lat": 35.9228,
      "lon": 136.4463,
      "altitude": 810,
      "points": 4,
      "activations": 0,
      "bonus": 0
    },
    {
      "ref": "JA/FI-091",
      "name": "Mizunashiyama",
      "nameEn": "Mizunashiyama",
      "lat": 36.1011,
      "lon": 136.4511,
      "altitude": 784,
      "points": 4,
      "activations": 0,
      "bonus": 0
    },
    {
      "ref": "JA/FI-092",
      "name": "Ooyama",
      "nameEn": "Ooyama",
      "lat": 35.8496,
      "lon": 136.2347,
      "altitude": 717,
      "points": 4,
      "activations": 1,
      "bonus": 0
    },
    {
      "ref": "JA/FI-093",
      "name": "Hirao",
      "nameEn": "Hirao",
      "lat": 35.9161,
      "lon": 136.39709,
      "altitude": 705,
      "points": 4,
      "activations": 0,
      "bonus": 0
    },
    {
      "ref": "JA/FI-094",
      "name": "Yarasudake",
      "nameEn": "Yarasudake",
      "lat": 35.8424,
      "lon": 136.0849,
      "altitude": 480,
      "points": 1,
      "activations": 7,
      "bonus": 0
    },
    {
      "ref": "JA/FI-095",
      "name": "Near Amagi",
      "nameEn": "Near Amagi",
      "lat": 35.8786,
      "lon": 136.02209,
      "altitude": 470,
      "points": 1,
      "activations": 2,
      "bonus": 0
    },
    {
      "ref": "JA/FI-096",
      "name": "JA/FI-096",
      "nameEn": "JA/FI-096",
      "lat": 35.8996,
      "lon": 136.2664,
      "altitude": 386,
      "points": 1,
      "activations": 0,
      "bonus": 0
    },
    {
      "ref": "JA/FI-097",
      "name": "Monjyusan",
      "nameEn": "Monjyusan",
      "lat": 35.9905,
      "lon": 136.224,
      "altitude": 366,
      "points": 1,
      "activations": 14,
      "bonus": 0
    },
    {
      "ref": "JA/FI-098",
      "name": "Shiroya",
      "nameEn": "Shiroya",
      "lat": 35.4997,
      "lon": 135.88499,
      "altitude": 340,
      "points": 1,
      "activations": 0,
      "bonus": 0
    },
    {
      "ref": "JA/FI-099",
      "name": "Ooshima",
      "nameEn": "Ooshima",
      "lat": 35.5348,
      "lon": 135.647,
      "altitude": 247,
      "points": 1,
      "activations": 0,
      "bonus": 0
    },
    {
      "ref": "JA/FI-100",
      "name": "Murakuniyama",
      "nameEn": "Murakuniyama",
      "lat": 35.8992,
      "lon": 136.18111,
      "altitude": 239,
      "points": 1,
      "activations": 7,
      "bonus": 0
    },
    {
      "ref": "JA/FI-101",
      "name": "Tsunekamiura",
      "nameEn": "Tsunekamiura",
      "lat": 35.6371,
      "lon": 135.8167,
      "altitude": 238,
      "points": 1,
      "activations": 2,
      "bonus": 0
    },
    {
      "ref": "JA/FI-102",
      "name": "Myohoujiyama",
      "nameEn": "Myohoujiyama",
      "lat": 35.8806,
      "lon": 136.15421,
      "altitude": 235,
      "points": 1,
      "activations": 4,
      "bonus": 0
    },
    {
      "ref": "JA/FI-103",
      "name": "Shiroyama",
      "nameEn": "Shiroyama",
      "lat": 36.0151,
      "lon": 136.186,
      "altitude": 202,
      "points": 1,
      "activations": 8,
      "bonus": 0
    },
    {
      "ref": "JA/FI-104",
      "name": "JA/FI-104",
      "nameEn": "JA/FI-104",
      "lat": 35.5255,
      "lon": 135.50999,
      "altitude": 195,
      "points": 1,
      "activations": 0,
      "bonus": 0
    },
    {
      "ref": "JA/FI-105",
      "name": "Okamijima",
      "nameEn": "Okamijima",
      "lat": 35.638,
      "lon": 135.8056,
      "altitude": 195,
      "points": 1,
      "activations": 0,
      "bonus": 0
    },
    {
      "ref": "JA/FI-106",
      "name": "Dakeyama",
      "nameEn": "Dakeyama",
      "lat": 35.6207,
      "lon": 135.9001,
      "altitude": 190,
      "points": 1,
      "activations": 7,
      "bonus": 0
    },
    {
      "ref": "JA/FI-107",
      "name": "Dannohana",
      "nameEn": "Dannohana",
      "lat": 35.5276,
      "lon": 135.4915,
      "altitude": 161,
      "points": 1,
      "activations": 1,
      "bonus": 0
    },
    {
      "ref": "JA/FS-001",
      "name": "Hiuchigatake (Shibayasugura)",
      "nameEn": "Hiuchigatake (Shibayasugura)",
      "lat": 36.9551,
      "lon": 139.28529,
      "altitude": 2356,
      "points": 10,
      "activations": 24,
      "bonus": 3
    },
    {
      "ref": "JA/FS-002",
      "name": "Aizukomagatake",
      "nameEn": "Aizukomagatake",
      "lat": 37.0475,
      "lon": 139.35361,
      "altitude": 2133,
      "points": 10,
      "activations": 16,
      "bonus": 3
    },
    {
      "ref": "JA/FS-003",
      "name": "Nishiadumayama",
      "nameEn": "Nishiadumayama",
      "lat": 37.7382,
      "lon": 140.14079,
      "altitude": 2035,
      "points": 10,
      "activations": 22,
      "bonus": 3
    },
    {
      "ref": "JA/FS-004",
      "name": "Higashiadumayama",
      "nameEn": "Higashiadumayama",
      "lat": 37.7117,
      "lon": 140.2303,
      "altitude": 1975,
      "points": 10,
      "activations": 47,
      "bonus": 3
    },
    {
      "ref": "JA/FS-005",
      "name": "Nakaagatsumayama",
      "nameEn": "Nakaagatsumayama",
      "lat": 37.7156,
      "lon": 140.1857,
      "altitude": 1931,
      "points": 10,
      "activations": 0,
      "bonus": 3
    },
    {
      "ref": "JA/FS-006",
      "name": "Mikurayama",
      "nameEn": "Mikurayama",
      "lat": 37.1578,
      "lon": 139.9026,
      "altitude": 1888,
      "points": 10,
      "activations": 6,
      "bonus": 3
    },
    {
      "ref": "JA/FS-007",
      "name": "Asahidake",
      "nameEn": "Asahidake",
      "lat": 37.1804,
      "lon": 139.9599,
      "altitude": 1830,
      "points": 10,
      "activations": 5,
      "bonus": 3
    },
    {
      "ref": "JA/FS-008",
      "name": "Maruyamadake",
      "nameEn": "Maruyamadake",
      "lat": 37.1727,
      "lon": 139.3349,
      "altitude": 1820,
      "points": 10,
      "activations": 0,
      "bonus": 3
    },
    {
      "ref": "JA/FS-009",
      "name": "Bandaisan",
      "nameEn": "Bandaisan",
      "lat": 37.601,
      "lon": 140.0723,
      "altitude": 1816,
      "points": 10,
      "activations": 59,
      "bonus": 3
    },